"file","time.user.self","time.sys.self","time.elapsed","url","label","confirmed","manual","width","height","yaw","roll","pitch","points","similarities","tid","recognizable","attributes.face.value","attributes.face.confidence","center.x","center.y","eye_left.x","eye_left.y","eye_left.confidence","eye_left.id","eye_right.x","eye_right.y","eye_right.confidence","eye_right.id","mouth_center.x","mouth_center.y","mouth_center.confidence","mouth_center.id","nose.x","nose.y","nose.confidence","nose.id"
"2016_CT6_R01_BJovanovski_SRB_vs_ACornet_FRA_WS163_clip.0001.png",0.0099999999999909,0,2.05999999999767,"http://on-the-t.com/assets/match_images/2016_CT6_R01_BJovanovski_SRB_vs_ACornet_FRA_WS163_clip.0001.png",NA,NA,NA,NA,NA,NA,NA,NA,NA,NA,NA,NA,NA,NA,NA,NA,NA,NA,NA,NA,NA,NA,NA,NA,NA,NA,NA,NA,NA,NA,NA,NA
"2016_CT6_R01_BJovanovski_SRB_vs_ACornet_FRA_WS163_clip.0002.png",0,0,1.39500000000407,"http://on-the-t.com/assets/match_images/2016_CT6_R01_BJovanovski_SRB_vs_ACornet_FRA_WS163_clip.0002.png",NA,NA,NA,NA,NA,NA,NA,NA,NA,NA,NA,NA,NA,NA,NA,NA,NA,NA,NA,NA,NA,NA,NA,NA,NA,NA,NA,NA,NA,NA,NA,NA
"2016_CT6_R01_BJovanovski_SRB_vs_ACornet_FRA_WS163_clip.0003.png",0,0.0100000000000016,1.41599999999744,"http://on-the-t.com/assets/match_images/2016_CT6_R01_BJovanovski_SRB_vs_ACornet_FRA_WS163_clip.0003.png",NA,NA,NA,NA,NA,NA,NA,NA,NA,NA,NA,NA,NA,NA,NA,NA,NA,NA,NA,NA,NA,NA,NA,NA,NA,NA,NA,NA,NA,NA,NA,NA
"2016_CT6_R01_BJovanovski_SRB_vs_ACornet_FRA_WS163_clip.0004.png",0,0.0100000000000016,1.37900000000081,"http://on-the-t.com/assets/match_images/2016_CT6_R01_BJovanovski_SRB_vs_ACornet_FRA_WS163_clip.0004.png",NA,NA,NA,NA,NA,NA,NA,NA,NA,NA,NA,NA,NA,NA,NA,NA,NA,NA,NA,NA,NA,NA,NA,NA,NA,NA,NA,NA,NA,NA,NA,NA
"2016_CT6_R01_BJovanovski_SRB_vs_ACornet_FRA_WS163_clip.0005.png",0.0099999999999909,0,1.44200000000274,"http://on-the-t.com/assets/match_images/2016_CT6_R01_BJovanovski_SRB_vs_ACornet_FRA_WS163_clip.0005.png",NA,NA,NA,NA,NA,NA,NA,NA,NA,NA,NA,NA,NA,NA,NA,NA,NA,NA,NA,NA,NA,NA,NA,NA,NA,NA,NA,NA,NA,NA,NA,NA
"2016_CT6_R01_BJovanovski_SRB_vs_ACornet_FRA_WS163_clip.0006.png",0,0.0100000000000016,1.29699999999866,"http://on-the-t.com/assets/match_images/2016_CT6_R01_BJovanovski_SRB_vs_ACornet_FRA_WS163_clip.0006.png",NA,NA,NA,NA,NA,NA,NA,NA,NA,NA,NA,NA,NA,NA,NA,NA,NA,NA,NA,NA,NA,NA,NA,NA,NA,NA,NA,NA,NA,NA,NA,NA
"2016_CT6_R01_BJovanovski_SRB_vs_ACornet_FRA_WS163_clip.0007.png",0.0099999999999909,0,1.41800000000512,"http://on-the-t.com/assets/match_images/2016_CT6_R01_BJovanovski_SRB_vs_ACornet_FRA_WS163_clip.0007.png",NA,NA,NA,NA,NA,NA,NA,NA,NA,NA,NA,NA,NA,NA,NA,NA,NA,NA,NA,NA,NA,NA,NA,NA,NA,NA,NA,NA,NA,NA,NA,NA
"2016_CT6_R01_BJovanovski_SRB_vs_ACornet_FRA_WS163_clip.0008.png",0,0.00999999999999801,1.43600000000151,"http://on-the-t.com/assets/match_images/2016_CT6_R01_BJovanovski_SRB_vs_ACornet_FRA_WS163_clip.0008.png",NA,NA,NA,NA,NA,NA,NA,NA,NA,NA,NA,NA,NA,NA,NA,NA,NA,NA,NA,NA,NA,NA,NA,NA,NA,NA,NA,NA,NA,NA,NA,NA
"2016_CT6_R01_BJovanovski_SRB_vs_ACornet_FRA_WS163_clip.0009.png",0.0099999999999909,0,1.33299999999872,"http://on-the-t.com/assets/match_images/2016_CT6_R01_BJovanovski_SRB_vs_ACornet_FRA_WS163_clip.0009.png",NA,NA,NA,NA,NA,NA,NA,NA,NA,NA,NA,NA,NA,NA,NA,NA,NA,NA,NA,NA,NA,NA,NA,NA,NA,NA,NA,NA,NA,NA,NA,NA
"2016_CT6_R01_BJovanovski_SRB_vs_ACornet_FRA_WS163_clip.0010.png",0.0099999999999909,0,1.2980000000025,"http://on-the-t.com/assets/match_images/2016_CT6_R01_BJovanovski_SRB_vs_ACornet_FRA_WS163_clip.0010.png",NA,NA,NA,NA,NA,NA,NA,NA,NA,NA,NA,NA,NA,NA,NA,NA,NA,NA,NA,NA,NA,NA,NA,NA,NA,NA,NA,NA,NA,NA,NA,NA
"2016_CT6_R01_BJovanovski_SRB_vs_ACornet_FRA_WS163_clip.0011.png",0.0099999999999909,0,1.23800000000483,"http://on-the-t.com/assets/match_images/2016_CT6_R01_BJovanovski_SRB_vs_ACornet_FRA_WS163_clip.0011.png",NA,NA,NA,NA,NA,NA,NA,NA,NA,NA,NA,NA,NA,NA,NA,NA,NA,NA,NA,NA,NA,NA,NA,NA,NA,NA,NA,NA,NA,NA,NA,NA
"2016_CT6_R01_BJovanovski_SRB_vs_ACornet_FRA_WS163_clip.0012.png",0.0099999999999909,0,1.26699999999983,"http://on-the-t.com/assets/match_images/2016_CT6_R01_BJovanovski_SRB_vs_ACornet_FRA_WS163_clip.0012.png",NA,NA,NA,NA,NA,NA,NA,NA,NA,NA,NA,NA,NA,NA,NA,NA,NA,NA,NA,NA,NA,NA,NA,NA,NA,NA,NA,NA,NA,NA,NA,NA
"2016_CT6_R01_BJovanovski_SRB_vs_ACornet_FRA_WS163_clip.0013.png",0,0.0200000000000031,1.38300000000163,"http://on-the-t.com/assets/match_images/2016_CT6_R01_BJovanovski_SRB_vs_ACornet_FRA_WS163_clip.0013.png",NA,NA,NA,NA,NA,NA,NA,NA,NA,NA,NA,NA,NA,NA,NA,NA,NA,NA,NA,NA,NA,NA,NA,NA,NA,NA,NA,NA,NA,NA,NA,NA
"2016_CT6_R01_BJovanovski_SRB_vs_ACornet_FRA_WS163_clip.0014.png",0.0099999999999909,0,1.31500000000233,"http://on-the-t.com/assets/match_images/2016_CT6_R01_BJovanovski_SRB_vs_ACornet_FRA_WS163_clip.0014.png",NA,NA,NA,NA,NA,NA,NA,NA,NA,NA,NA,NA,NA,NA,NA,NA,NA,NA,NA,NA,NA,NA,NA,NA,NA,NA,NA,NA,NA,NA,NA,NA
"2016_CT6_R01_BJovanovski_SRB_vs_ACornet_FRA_WS163_clip.0015.png",0,0.0100000000000016,1.45900000000256,"http://on-the-t.com/assets/match_images/2016_CT6_R01_BJovanovski_SRB_vs_ACornet_FRA_WS163_clip.0015.png",NA,NA,NA,NA,NA,NA,NA,NA,NA,NA,NA,NA,NA,NA,NA,NA,NA,NA,NA,NA,NA,NA,NA,NA,NA,NA,NA,NA,NA,NA,NA,NA
"2016_CT6_R01_BJovanovski_SRB_vs_ACornet_FRA_WS163_clip.0016.png",0.0099999999999909,0,1.29900000000634,"http://on-the-t.com/assets/match_images/2016_CT6_R01_BJovanovski_SRB_vs_ACornet_FRA_WS163_clip.0016.png",NA,NA,NA,NA,NA,NA,NA,NA,NA,NA,NA,NA,NA,NA,NA,NA,NA,NA,NA,NA,NA,NA,NA,NA,NA,NA,NA,NA,NA,NA,NA,NA
"2016_CT6_R01_BJovanovski_SRB_vs_ACornet_FRA_WS163_clip.0017.png",0.0099999999999909,0,1.40400000000227,"http://on-the-t.com/assets/match_images/2016_CT6_R01_BJovanovski_SRB_vs_ACornet_FRA_WS163_clip.0017.png",NA,NA,NA,NA,NA,NA,NA,NA,NA,NA,NA,NA,NA,NA,NA,NA,NA,NA,NA,NA,NA,NA,NA,NA,NA,NA,NA,NA,NA,NA,NA,NA
"2016_CT6_R01_BJovanovski_SRB_vs_ACornet_FRA_WS163_clip.0018.png",0.0099999999999909,0,1.22200000000157,"http://on-the-t.com/assets/match_images/2016_CT6_R01_BJovanovski_SRB_vs_ACornet_FRA_WS163_clip.0018.png",NA,NA,NA,NA,NA,NA,NA,NA,NA,NA,NA,NA,NA,NA,NA,NA,NA,NA,NA,NA,NA,NA,NA,NA,NA,NA,NA,NA,NA,NA,NA,NA
"2016_CT6_R01_BJovanovski_SRB_vs_ACornet_FRA_WS163_clip.0019.png",0,0,1.31599999999889,"http://on-the-t.com/assets/match_images/2016_CT6_R01_BJovanovski_SRB_vs_ACornet_FRA_WS163_clip.0019.png",NA,NA,NA,NA,NA,NA,NA,NA,NA,NA,NA,NA,NA,NA,NA,NA,NA,NA,NA,NA,NA,NA,NA,NA,NA,NA,NA,NA,NA,NA,NA,NA
"2016_CT6_R01_BJovanovski_SRB_vs_ACornet_FRA_WS163_clip.0020.png",0,0.00999999999999801,1.33899999999994,"http://on-the-t.com/assets/match_images/2016_CT6_R01_BJovanovski_SRB_vs_ACornet_FRA_WS163_clip.0020.png",NA,NA,NA,NA,NA,NA,NA,NA,NA,NA,NA,NA,NA,NA,NA,NA,NA,NA,NA,NA,NA,NA,NA,NA,NA,NA,NA,NA,NA,NA,NA,NA
"2016_CT6_R01_BJovanovski_SRB_vs_ACornet_FRA_WS163_clip.0021.png",0.0099999999999909,0,1.34600000000501,"http://on-the-t.com/assets/match_images/2016_CT6_R01_BJovanovski_SRB_vs_ACornet_FRA_WS163_clip.0021.png",NA,NA,NA,NA,NA,NA,NA,NA,NA,NA,NA,NA,NA,NA,NA,NA,NA,NA,NA,NA,NA,NA,NA,NA,NA,NA,NA,NA,NA,NA,NA,NA
"2016_CT6_R01_BJovanovski_SRB_vs_ACornet_FRA_WS163_clip.0022.png",0.0099999999999909,0,1.31999999999971,"http://on-the-t.com/assets/match_images/2016_CT6_R01_BJovanovski_SRB_vs_ACornet_FRA_WS163_clip.0022.png",NA,NA,NA,NA,NA,NA,NA,NA,NA,NA,NA,NA,NA,NA,NA,NA,NA,NA,NA,NA,NA,NA,NA,NA,NA,NA,NA,NA,NA,NA,NA,NA
"2016_CT6_R01_BJovanovski_SRB_vs_ACornet_FRA_WS163_clip.0023.png",0,0.0100000000000016,1.33399999999529,"http://on-the-t.com/assets/match_images/2016_CT6_R01_BJovanovski_SRB_vs_ACornet_FRA_WS163_clip.0023.png",NA,NA,NA,NA,NA,NA,NA,NA,NA,NA,NA,NA,NA,NA,NA,NA,NA,NA,NA,NA,NA,NA,NA,NA,NA,NA,NA,NA,NA,NA,NA,NA
"2016_CT6_R01_BJovanovski_SRB_vs_ACornet_FRA_WS163_clip.0024.png",0.0099999999999909,0,1.27900000000227,"http://on-the-t.com/assets/match_images/2016_CT6_R01_BJovanovski_SRB_vs_ACornet_FRA_WS163_clip.0024.png",NA,NA,NA,NA,NA,NA,NA,NA,NA,NA,NA,NA,NA,NA,NA,NA,NA,NA,NA,NA,NA,NA,NA,NA,NA,NA,NA,NA,NA,NA,NA,NA
"2016_CT6_R01_BJovanovski_SRB_vs_ACornet_FRA_WS163_clip.0025.png",0.0099999999999909,0,1.32400000000052,"http://on-the-t.com/assets/match_images/2016_CT6_R01_BJovanovski_SRB_vs_ACornet_FRA_WS163_clip.0025.png",NA,NA,NA,NA,NA,NA,NA,NA,NA,NA,NA,NA,NA,NA,NA,NA,NA,NA,NA,NA,NA,NA,NA,NA,NA,NA,NA,NA,NA,NA,NA,NA
"2016_CT6_R01_BJovanovski_SRB_vs_ACornet_FRA_WS163_clip.0026.png",0,0,1.41599999999744,"http://on-the-t.com/assets/match_images/2016_CT6_R01_BJovanovski_SRB_vs_ACornet_FRA_WS163_clip.0026.png",NA,NA,NA,NA,NA,NA,NA,NA,NA,NA,NA,NA,NA,NA,NA,NA,NA,NA,NA,NA,NA,NA,NA,NA,NA,NA,NA,NA,NA,NA,NA,NA
"2016_CT6_R01_CGarcia_FRA_vs_BStrycova_CZE_WS145_clip.0001.png",0.0099999999999909,0,1.38999999999942,"http://on-the-t.com/assets/match_images/2016_CT6_R01_CGarcia_FRA_vs_BStrycova_CZE_WS145_clip.0001.png",NA,NA,NA,NA,NA,NA,NA,NA,NA,NA,NA,NA,NA,NA,NA,NA,NA,NA,NA,NA,NA,NA,NA,NA,NA,NA,NA,NA,NA,NA,NA,NA
"2016_CT6_R01_CGarcia_FRA_vs_BStrycova_CZE_WS145_clip.0002.png",0,0,2.4690000000046,"http://on-the-t.com/assets/match_images/2016_CT6_R01_CGarcia_FRA_vs_BStrycova_CZE_WS145_clip.0002.png",NA,NA,NA,NA,NA,NA,NA,NA,NA,NA,NA,NA,NA,NA,NA,NA,NA,NA,NA,NA,NA,NA,NA,NA,NA,NA,NA,NA,NA,NA,NA,NA
"2016_CT6_R01_CGarcia_FRA_vs_BStrycova_CZE_WS145_clip.0003.png",0.0099999999999909,0,1.29200000000128,"http://on-the-t.com/assets/match_images/2016_CT6_R01_CGarcia_FRA_vs_BStrycova_CZE_WS145_clip.0003.png",NA,NA,NA,NA,NA,NA,NA,NA,NA,NA,NA,NA,NA,NA,NA,NA,NA,NA,NA,NA,NA,NA,NA,NA,NA,NA,NA,NA,NA,NA,NA,NA
"2016_CT6_R01_CGarcia_FRA_vs_BStrycova_CZE_WS145_clip.0004.png",0,0.0100000000000016,1.30899999999383,"http://on-the-t.com/assets/match_images/2016_CT6_R01_CGarcia_FRA_vs_BStrycova_CZE_WS145_clip.0004.png",NA,NA,NA,NA,NA,NA,NA,NA,NA,NA,NA,NA,NA,NA,NA,NA,NA,NA,NA,NA,NA,NA,NA,NA,NA,NA,NA,NA,NA,NA,NA,NA
"2016_CT6_R01_CGarcia_FRA_vs_BStrycova_CZE_WS145_clip.0005.png",0.0099999999999909,0,1.29799999999523,"http://on-the-t.com/assets/match_images/2016_CT6_R01_CGarcia_FRA_vs_BStrycova_CZE_WS145_clip.0005.png",NA,NA,NA,NA,NA,NA,NA,NA,NA,NA,NA,NA,NA,NA,NA,NA,NA,NA,NA,NA,NA,NA,NA,NA,NA,NA,NA,NA,NA,NA,NA,NA
"2016_CT6_R01_CGarcia_FRA_vs_BStrycova_CZE_WS145_clip.0006.png",0.0099999999999909,0,1.27900000000227,"http://on-the-t.com/assets/match_images/2016_CT6_R01_CGarcia_FRA_vs_BStrycova_CZE_WS145_clip.0006.png",NA,NA,NA,NA,NA,NA,NA,NA,NA,NA,NA,NA,NA,NA,NA,NA,NA,NA,NA,NA,NA,NA,NA,NA,NA,NA,NA,NA,NA,NA,NA,NA
"2016_CT6_R01_CGarcia_FRA_vs_BStrycova_CZE_WS145_clip.0007.png",0.0099999999999909,0,1.32400000000052,"http://on-the-t.com/assets/match_images/2016_CT6_R01_CGarcia_FRA_vs_BStrycova_CZE_WS145_clip.0007.png",NA,NA,NA,NA,NA,NA,NA,NA,NA,NA,NA,NA,NA,NA,NA,NA,NA,NA,NA,NA,NA,NA,NA,NA,NA,NA,NA,NA,NA,NA,NA,NA
"2016_CT6_R01_CGarcia_FRA_vs_BStrycova_CZE_WS145_clip.0008.png",0.0099999999999909,0,1.26400000000285,"http://on-the-t.com/assets/match_images/2016_CT6_R01_CGarcia_FRA_vs_BStrycova_CZE_WS145_clip.0008.png",NA,NA,NA,NA,NA,NA,NA,NA,NA,NA,NA,NA,NA,NA,NA,NA,NA,NA,NA,NA,NA,NA,NA,NA,NA,NA,NA,NA,NA,NA,NA,NA
"2016_CT6_R01_CGarcia_FRA_vs_BStrycova_CZE_WS145_clip.0009.png",0.0099999999999909,0,1.30399999999645,"http://on-the-t.com/assets/match_images/2016_CT6_R01_CGarcia_FRA_vs_BStrycova_CZE_WS145_clip.0009.png",NA,NA,NA,NA,NA,NA,NA,NA,NA,NA,NA,NA,NA,NA,NA,NA,NA,NA,NA,NA,NA,NA,NA,NA,NA,NA,NA,NA,NA,NA,NA,NA
"2016_CT6_R01_CGarcia_FRA_vs_BStrycova_CZE_WS145_clip.0010.png",0.0099999999999909,0,1.31700000000274,"http://on-the-t.com/assets/match_images/2016_CT6_R01_CGarcia_FRA_vs_BStrycova_CZE_WS145_clip.0010.png",NA,NA,NA,NA,NA,NA,NA,NA,NA,NA,NA,NA,NA,NA,NA,NA,NA,NA,NA,NA,NA,NA,NA,NA,NA,NA,NA,NA,NA,NA,NA,NA
"2016_CT6_R01_CGarcia_FRA_vs_BStrycova_CZE_WS145_clip.0011.png",0.0099999999999909,0,1.29999999999563,"http://on-the-t.com/assets/match_images/2016_CT6_R01_CGarcia_FRA_vs_BStrycova_CZE_WS145_clip.0011.png",NA,NA,NA,NA,NA,NA,NA,NA,NA,NA,NA,NA,NA,NA,NA,NA,NA,NA,NA,NA,NA,NA,NA,NA,NA,NA,NA,NA,NA,NA,NA,NA
"2016_CT6_R01_CGarcia_FRA_vs_BStrycova_CZE_WS145_clip.0012.png",0.0099999999999909,0,1.35200000000623,"http://on-the-t.com/assets/match_images/2016_CT6_R01_CGarcia_FRA_vs_BStrycova_CZE_WS145_clip.0012.png",NA,NA,NA,NA,NA,NA,NA,NA,NA,NA,NA,NA,NA,NA,NA,NA,NA,NA,NA,NA,NA,NA,NA,NA,NA,NA,NA,NA,NA,NA,NA,NA
"2016_CT6_R01_CGarcia_FRA_vs_BStrycova_CZE_WS145_clip.0013.png",0.0099999999999909,0,1.3660000000018,"http://on-the-t.com/assets/match_images/2016_CT6_R01_CGarcia_FRA_vs_BStrycova_CZE_WS145_clip.0013.png",NA,NA,NA,NA,NA,NA,NA,NA,NA,NA,NA,NA,NA,NA,NA,NA,NA,NA,NA,NA,NA,NA,NA,NA,NA,NA,NA,NA,NA,NA,NA,NA
"2016_CT6_R01_CGarcia_FRA_vs_BStrycova_CZE_WS145_clip.0014.png",0.0099999999999909,0,1.25600000000122,"http://on-the-t.com/assets/match_images/2016_CT6_R01_CGarcia_FRA_vs_BStrycova_CZE_WS145_clip.0014.png",NA,NA,NA,NA,NA,NA,NA,NA,NA,NA,NA,NA,NA,NA,NA,NA,NA,NA,NA,NA,NA,NA,NA,NA,NA,NA,NA,NA,NA,NA,NA,NA
"2016_CT6_R01_CGarcia_FRA_vs_BStrycova_CZE_WS145_clip.0015.png",0.0099999999999909,0,1.31199999999808,"http://on-the-t.com/assets/match_images/2016_CT6_R01_CGarcia_FRA_vs_BStrycova_CZE_WS145_clip.0015.png",NA,FALSE,FALSE,4.5,8,5,-4,-4,NA,NA,"TEMP_F@0e6b7472288861b76d11a68f017c003a_1b7a7c715c07c_47.50_12.89_0_1",TRUE,"true",48,47.5,12.89,48.62,10.89,92,449,46.38,11.11,89,450,47.5,15.78,94,615,47.38,13.33,87,403
"2016_CT6_R01_CGarcia_FRA_vs_BStrycova_CZE_WS145_clip.0016.png",0,0,1.49900000000343,"http://on-the-t.com/assets/match_images/2016_CT6_R01_CGarcia_FRA_vs_BStrycova_CZE_WS145_clip.0016.png",NA,NA,NA,NA,NA,NA,NA,NA,NA,NA,NA,NA,NA,NA,NA,NA,NA,NA,NA,NA,NA,NA,NA,NA,NA,NA,NA,NA,NA,NA,NA,NA
"2016_CT6_R01_CGarcia_FRA_vs_BStrycova_CZE_WS145_clip.0017.png",0.0099999999999909,0,1.31999999999971,"http://on-the-t.com/assets/match_images/2016_CT6_R01_CGarcia_FRA_vs_BStrycova_CZE_WS145_clip.0017.png",NA,NA,NA,NA,NA,NA,NA,NA,NA,NA,NA,NA,NA,NA,NA,NA,NA,NA,NA,NA,NA,NA,NA,NA,NA,NA,NA,NA,NA,NA,NA,NA
"2016_CT6_R01_CGarcia_FRA_vs_BStrycova_CZE_WS145_clip.0018.png",0,0,1.18400000000111,"http://on-the-t.com/assets/match_images/2016_CT6_R01_CGarcia_FRA_vs_BStrycova_CZE_WS145_clip.0018.png",NA,NA,NA,NA,NA,NA,NA,NA,NA,NA,NA,NA,NA,NA,NA,NA,NA,NA,NA,NA,NA,NA,NA,NA,NA,NA,NA,NA,NA,NA,NA,NA
"2016_CT6_R01_CGarcia_FRA_vs_BStrycova_CZE_WS145_clip.0019.png",0.0099999999999909,0,1.21399999999994,"http://on-the-t.com/assets/match_images/2016_CT6_R01_CGarcia_FRA_vs_BStrycova_CZE_WS145_clip.0019.png",NA,NA,NA,NA,NA,NA,NA,NA,NA,NA,NA,NA,NA,NA,NA,NA,NA,NA,NA,NA,NA,NA,NA,NA,NA,NA,NA,NA,NA,NA,NA,NA
"2016_CT6_R01_CGarcia_FRA_vs_BStrycova_CZE_WS145_clip.0020.png",0.0099999999999909,0,1.29000000000087,"http://on-the-t.com/assets/match_images/2016_CT6_R01_CGarcia_FRA_vs_BStrycova_CZE_WS145_clip.0020.png",NA,NA,NA,NA,NA,NA,NA,NA,NA,NA,NA,NA,NA,NA,NA,NA,NA,NA,NA,NA,NA,NA,NA,NA,NA,NA,NA,NA,NA,NA,NA,NA
"2016_CT6_R01_CGarcia_FRA_vs_BStrycova_CZE_WS145_clip.0021.png",0,0,1.24799999999959,"http://on-the-t.com/assets/match_images/2016_CT6_R01_CGarcia_FRA_vs_BStrycova_CZE_WS145_clip.0021.png",NA,NA,NA,NA,NA,NA,NA,NA,NA,NA,NA,NA,NA,NA,NA,NA,NA,NA,NA,NA,NA,NA,NA,NA,NA,NA,NA,NA,NA,NA,NA,NA
"2016_CT6_R01_CGarcia_FRA_vs_BStrycova_CZE_WS145_clip.0022.png",0,0.0100000000000016,1.37799999999697,"http://on-the-t.com/assets/match_images/2016_CT6_R01_CGarcia_FRA_vs_BStrycova_CZE_WS145_clip.0022.png",NA,NA,NA,NA,NA,NA,NA,NA,NA,NA,NA,NA,NA,NA,NA,NA,NA,NA,NA,NA,NA,NA,NA,NA,NA,NA,NA,NA,NA,NA,NA,NA
"2016_CT6_R01_CGarcia_FRA_vs_BStrycova_CZE_WS145_clip.0023.png",0.0099999999999909,0,1.27100000000064,"http://on-the-t.com/assets/match_images/2016_CT6_R01_CGarcia_FRA_vs_BStrycova_CZE_WS145_clip.0023.png",NA,NA,NA,NA,NA,NA,NA,NA,NA,NA,NA,NA,NA,NA,NA,NA,NA,NA,NA,NA,NA,NA,NA,NA,NA,NA,NA,NA,NA,NA,NA,NA
"2016_CT6_R01_CGarcia_FRA_vs_BStrycova_CZE_WS145_clip.0024.png",0,0.0100000000000016,1.28199999999924,"http://on-the-t.com/assets/match_images/2016_CT6_R01_CGarcia_FRA_vs_BStrycova_CZE_WS145_clip.0024.png",NA,NA,NA,NA,NA,NA,NA,NA,NA,NA,NA,NA,NA,NA,NA,NA,NA,NA,NA,NA,NA,NA,NA,NA,NA,NA,NA,NA,NA,NA,NA,NA
"2016_CT6_R01_CGarcia_FRA_vs_BStrycova_CZE_WS145_clip.0025.png",0.0099999999999909,0,1.31000000000495,"http://on-the-t.com/assets/match_images/2016_CT6_R01_CGarcia_FRA_vs_BStrycova_CZE_WS145_clip.0025.png",NA,NA,NA,NA,NA,NA,NA,NA,NA,NA,NA,NA,NA,NA,NA,NA,NA,NA,NA,NA,NA,NA,NA,NA,NA,NA,NA,NA,NA,NA,NA,NA
"2016_CT6_R01_CGarcia_FRA_vs_BStrycova_CZE_WS145_clip.0026.png",0,0.0100000000000016,1.3550000000032,"http://on-the-t.com/assets/match_images/2016_CT6_R01_CGarcia_FRA_vs_BStrycova_CZE_WS145_clip.0026.png",NA,NA,NA,NA,NA,NA,NA,NA,NA,NA,NA,NA,NA,NA,NA,NA,NA,NA,NA,NA,NA,NA,NA,NA,NA,NA,NA,NA,NA,NA,NA,NA
"2016_CT6_R01_CGarcia_FRA_vs_BStrycova_CZE_WS145_clip.0027.png",0,0.00999999999999801,1.3070000000007,"http://on-the-t.com/assets/match_images/2016_CT6_R01_CGarcia_FRA_vs_BStrycova_CZE_WS145_clip.0027.png",NA,NA,NA,NA,NA,NA,NA,NA,NA,NA,NA,NA,NA,NA,NA,NA,NA,NA,NA,NA,NA,NA,NA,NA,NA,NA,NA,NA,NA,NA,NA,NA
"2016_CT6_R01_CGarcia_FRA_vs_BStrycova_CZE_WS145_clip.0028.png",0.0099999999999909,0,1.33400000000256,"http://on-the-t.com/assets/match_images/2016_CT6_R01_CGarcia_FRA_vs_BStrycova_CZE_WS145_clip.0028.png",NA,NA,NA,NA,NA,NA,NA,NA,NA,NA,NA,NA,NA,NA,NA,NA,NA,NA,NA,NA,NA,NA,NA,NA,NA,NA,NA,NA,NA,NA,NA,NA
"2016_CT6_R01_CGarcia_FRA_vs_BStrycova_CZE_WS145_clip.0029.png",0.0099999999999909,0,1.37599999999657,"http://on-the-t.com/assets/match_images/2016_CT6_R01_CGarcia_FRA_vs_BStrycova_CZE_WS145_clip.0029.png",NA,NA,NA,NA,NA,NA,NA,NA,NA,NA,NA,NA,NA,NA,NA,NA,NA,NA,NA,NA,NA,NA,NA,NA,NA,NA,NA,NA,NA,NA,NA,NA
"2016_CT6_R01_CGarcia_FRA_vs_BStrycova_CZE_WS145_clip.0030.png",0.0099999999999909,0,1.3440000000046,"http://on-the-t.com/assets/match_images/2016_CT6_R01_CGarcia_FRA_vs_BStrycova_CZE_WS145_clip.0030.png",NA,NA,NA,NA,NA,NA,NA,NA,NA,NA,NA,NA,NA,NA,NA,NA,NA,NA,NA,NA,NA,NA,NA,NA,NA,NA,NA,NA,NA,NA,NA,NA
"2016_CT6_R01_CGarcia_FRA_vs_BStrycova_CZE_WS145_clip.0031.png",0.0099999999999909,0,2.12299999999959,"http://on-the-t.com/assets/match_images/2016_CT6_R01_CGarcia_FRA_vs_BStrycova_CZE_WS145_clip.0031.png",NA,NA,NA,NA,NA,NA,NA,NA,NA,NA,NA,NA,NA,NA,NA,NA,NA,NA,NA,NA,NA,NA,NA,NA,NA,NA,NA,NA,NA,NA,NA,NA
"2016_CT6_R01_CGarcia_FRA_vs_BStrycova_CZE_WS145_clip.0032.png",0.0099999999999909,0,1.50200000000041,"http://on-the-t.com/assets/match_images/2016_CT6_R01_CGarcia_FRA_vs_BStrycova_CZE_WS145_clip.0032.png",NA,NA,NA,NA,NA,NA,NA,NA,NA,NA,NA,NA,NA,NA,NA,NA,NA,NA,NA,NA,NA,NA,NA,NA,NA,NA,NA,NA,NA,NA,NA,NA
"2016_CT6_R01_EKulichkova_RUS_vs_APetkovic_GER_WS128_clip.0001.png",0.0099999999999909,0,1.28600000000006,"http://on-the-t.com/assets/match_images/2016_CT6_R01_EKulichkova_RUS_vs_APetkovic_GER_WS128_clip.0001.png",NA,FALSE,FALSE,4.5,8,-37,-14,-8,NA,NA,"TEMP_F@0466b56757c33e19096367c301b9005e_02413ee2d8897_55.12_20.89_0_1",TRUE,"true",67,55.12,20.89,56.12,18.67,82,449,53.88,19.56,89,450,56,24.89,59,615,56.5,21.33,76,403
"2016_CT6_R01_EKulichkova_RUS_vs_APetkovic_GER_WS128_clip.0002.png",0,0,1.28100000000268,"http://on-the-t.com/assets/match_images/2016_CT6_R01_EKulichkova_RUS_vs_APetkovic_GER_WS128_clip.0002.png",NA,FALSE,FALSE,4.75,8.44,-25,2,-21,NA,NA,"TEMP_F@0dc94ceb13ccefc725574b8401a50089_9a63f25426372_52.62_30.44_0_1",TRUE,"true",52,52.62,30.44,54,28.67,92,449,51.62,28.44,87,450,52.75,33.56,94,615,53.38,32,94,403
"2016_CT6_R01_EKulichkova_RUS_vs_APetkovic_GER_WS128_clip.0003.png",0.0099999999999909,0,1.21300000000338,"http://on-the-t.com/assets/match_images/2016_CT6_R01_EKulichkova_RUS_vs_APetkovic_GER_WS128_clip.0003.png",NA,NA,NA,NA,NA,NA,NA,NA,NA,NA,NA,NA,NA,NA,NA,NA,NA,NA,NA,NA,NA,NA,NA,NA,NA,NA,NA,NA,NA,NA,NA,NA
"2016_CT6_R01_EKulichkova_RUS_vs_APetkovic_GER_WS128_clip.0004.png",0.0099999999999909,0,1.45500000000175,"http://on-the-t.com/assets/match_images/2016_CT6_R01_EKulichkova_RUS_vs_APetkovic_GER_WS128_clip.0004.png",NA,NA,NA,NA,NA,NA,NA,NA,NA,NA,NA,NA,NA,NA,NA,NA,NA,NA,NA,NA,NA,NA,NA,NA,NA,NA,NA,NA,NA,NA,NA,NA
"2016_CT6_R01_EKulichkova_RUS_vs_APetkovic_GER_WS128_clip.0005.png",0,0,1.37799999999697,"http://on-the-t.com/assets/match_images/2016_CT6_R01_EKulichkova_RUS_vs_APetkovic_GER_WS128_clip.0005.png",NA,NA,NA,NA,NA,NA,NA,NA,NA,NA,NA,NA,NA,NA,NA,NA,NA,NA,NA,NA,NA,NA,NA,NA,NA,NA,NA,NA,NA,NA,NA,NA
"2016_CT6_R01_EKulichkova_RUS_vs_APetkovic_GER_WS128_clip.0006.png",0.0099999999999909,0,1.39999999999418,"http://on-the-t.com/assets/match_images/2016_CT6_R01_EKulichkova_RUS_vs_APetkovic_GER_WS128_clip.0006.png",NA,NA,NA,NA,NA,NA,NA,NA,NA,NA,NA,NA,NA,NA,NA,NA,NA,NA,NA,NA,NA,NA,NA,NA,NA,NA,NA,NA,NA,NA,NA,NA
"2016_CT6_R01_EKulichkova_RUS_vs_APetkovic_GER_WS128_clip.0007.png",0,0,1.37800000000425,"http://on-the-t.com/assets/match_images/2016_CT6_R01_EKulichkova_RUS_vs_APetkovic_GER_WS128_clip.0007.png",NA,NA,NA,NA,NA,NA,NA,NA,NA,NA,NA,NA,NA,NA,NA,NA,NA,NA,NA,NA,NA,NA,NA,NA,NA,NA,NA,NA,NA,NA,NA,NA
"2016_CT6_R01_EKulichkova_RUS_vs_APetkovic_GER_WS128_clip.0008.png",0.0099999999999909,0,1.3489999999947,"http://on-the-t.com/assets/match_images/2016_CT6_R01_EKulichkova_RUS_vs_APetkovic_GER_WS128_clip.0008.png",NA,FALSE,FALSE,4.25,7.56,17,4,-11,NA,NA,"TEMP_F@0b02e9cf0cff417f2488f95701700055_8028febdfd594_46.00_18.89_0_1",TRUE,"true",68,46,18.89,47.25,17.33,78,449,45.12,17.11,86,450,45.75,21.11,87,615,45.62,19.33,91,403
"2016_CT6_R01_EKulichkova_RUS_vs_APetkovic_GER_WS128_clip.0009.png",0,0,1.36299999999756,"http://on-the-t.com/assets/match_images/2016_CT6_R01_EKulichkova_RUS_vs_APetkovic_GER_WS128_clip.0009.png",NA,FALSE,FALSE,5.25,9.33,19,4,-3,NA,NA,"TEMP_F@0d3e163a5ba88a1c2c95fd1f01ec006b_198718816fe45_61.50_23.78_0_1",TRUE,"true",69,61.5,23.78,63,21.78,94,449,60.38,21.56,88,450,61.38,27.33,95,615,61,24.22,96,403
"2016_CT6_R01_EKulichkova_RUS_vs_APetkovic_GER_WS128_clip.0010.png",0,0,1.36500000000524,"http://on-the-t.com/assets/match_images/2016_CT6_R01_EKulichkova_RUS_vs_APetkovic_GER_WS128_clip.0010.png",NA,FALSE,FALSE,4.62,8.22,23,14,-14,NA,NA,"TEMP_F@01fefc853db5452013fbeb83020c005d_5e07df9a4e6a7_65.50_20.67_0_1",TRUE,"true",64,65.5,20.67,67.12,19.56,92,449,64.88,18.44,86,450,65.25,24.22,91,615,65,21.78,89,403
"2016_CT6_R01_EKulichkova_RUS_vs_APetkovic_GER_WS128_clip.0011.png",0,0.00999999999999801,1.34700000000157,"http://on-the-t.com/assets/match_images/2016_CT6_R01_EKulichkova_RUS_vs_APetkovic_GER_WS128_clip.0011.png",NA,FALSE,FALSE,4.75,8.44,23,6,-7,NA,NA,"TEMP_F@0650b77a6da7411a02a7ecce01c8005a_bf585edd5ac32_57.00_20.00_0_1",TRUE,"true",69,57,20,58.38,18.22,96,449,56,17.78,94,450,56.62,23.56,95,615,56.38,20.67,96,403
"2016_CT6_R01_EKulichkova_RUS_vs_APetkovic_GER_WS128_clip.0012.png",0.0099999999999909,0,1.32900000000518,"http://on-the-t.com/assets/match_images/2016_CT6_R01_EKulichkova_RUS_vs_APetkovic_GER_WS128_clip.0012.png",NA,FALSE,FALSE,4.75,8.44,24,2,-7,NA,NA,"TEMP_F@004662ba6cec289e4084ca5401d9004d_12d7eda22ad2f_59.12_17.11_0_1",TRUE,"true",67,59.12,17.11,60.5,15.33,95,449,58.12,15.11,92,450,58.75,20.67,91,615,58.38,18.22,82,403
"2016_CT6_R01_EKulichkova_RUS_vs_APetkovic_GER_WS128_clip.0013.png",0,0.0100000000000016,1.48099999999977,"http://on-the-t.com/assets/match_images/2016_CT6_R01_EKulichkova_RUS_vs_APetkovic_GER_WS128_clip.0013.png",NA,NA,NA,NA,NA,NA,NA,NA,NA,NA,NA,NA,NA,NA,NA,NA,NA,NA,NA,NA,NA,NA,NA,NA,NA,NA,NA,NA,NA,NA,NA,NA
"2016_CT6_R01_EKulichkova_RUS_vs_APetkovic_GER_WS128_clip.0014.png",0,0.00999999999999801,1.46800000000076,"http://on-the-t.com/assets/match_images/2016_CT6_R01_EKulichkova_RUS_vs_APetkovic_GER_WS128_clip.0014.png",NA,NA,NA,NA,NA,NA,NA,NA,NA,NA,NA,NA,NA,NA,NA,NA,NA,NA,NA,NA,NA,NA,NA,NA,NA,NA,NA,NA,NA,NA,NA,NA
"2016_CT6_R01_EKulichkova_RUS_vs_APetkovic_GER_WS128_clip.0015.png",0.0099999999999909,0,1.3660000000018,"http://on-the-t.com/assets/match_images/2016_CT6_R01_EKulichkova_RUS_vs_APetkovic_GER_WS128_clip.0015.png",NA,NA,NA,NA,NA,NA,NA,NA,NA,NA,NA,NA,NA,NA,NA,NA,NA,NA,NA,NA,NA,NA,NA,NA,NA,NA,NA,NA,NA,NA,NA,NA
"2016_CT6_R01_EKulichkova_RUS_vs_APetkovic_GER_WS128_clip.0016.png",0.0099999999999909,0,1.50800000000163,"http://on-the-t.com/assets/match_images/2016_CT6_R01_EKulichkova_RUS_vs_APetkovic_GER_WS128_clip.0016.png",NA,NA,NA,NA,NA,NA,NA,NA,NA,NA,NA,NA,NA,NA,NA,NA,NA,NA,NA,NA,NA,NA,NA,NA,NA,NA,NA,NA,NA,NA,NA,NA
"2016_CT6_R01_EKulichkova_RUS_vs_APetkovic_GER_WS128_clip.0017.png",0,0,1.40899999999965,"http://on-the-t.com/assets/match_images/2016_CT6_R01_EKulichkova_RUS_vs_APetkovic_GER_WS128_clip.0017.png",NA,NA,NA,NA,NA,NA,NA,NA,NA,NA,NA,NA,NA,NA,NA,NA,NA,NA,NA,NA,NA,NA,NA,NA,NA,NA,NA,NA,NA,NA,NA,NA
"2016_CT6_R01_EKulichkova_RUS_vs_APetkovic_GER_WS128_clip.0018.png",0.0099999999999909,0,1.4059999999954,"http://on-the-t.com/assets/match_images/2016_CT6_R01_EKulichkova_RUS_vs_APetkovic_GER_WS128_clip.0018.png",NA,NA,NA,NA,NA,NA,NA,NA,NA,NA,NA,NA,NA,NA,NA,NA,NA,NA,NA,NA,NA,NA,NA,NA,NA,NA,NA,NA,NA,NA,NA,NA
"2016_CT6_R01_EKulichkova_RUS_vs_APetkovic_GER_WS128_clip.0019.png",0.0099999999999909,0,1.42299999999523,"http://on-the-t.com/assets/match_images/2016_CT6_R01_EKulichkova_RUS_vs_APetkovic_GER_WS128_clip.0019.png",NA,NA,NA,NA,NA,NA,NA,NA,NA,NA,NA,NA,NA,NA,NA,NA,NA,NA,NA,NA,NA,NA,NA,NA,NA,NA,NA,NA,NA,NA,NA,NA
"2016_CT6_R01_EKulichkova_RUS_vs_APetkovic_GER_WS128_clip.0020.png",0.0099999999999909,0,1.41300000000047,"http://on-the-t.com/assets/match_images/2016_CT6_R01_EKulichkova_RUS_vs_APetkovic_GER_WS128_clip.0020.png",NA,NA,NA,NA,NA,NA,NA,NA,NA,NA,NA,NA,NA,NA,NA,NA,NA,NA,NA,NA,NA,NA,NA,NA,NA,NA,NA,NA,NA,NA,NA,NA
"2016_CT6_R01_EKulichkova_RUS_vs_APetkovic_GER_WS128_clip.0021.png",0.0099999999999909,0,1.4429999999993,"http://on-the-t.com/assets/match_images/2016_CT6_R01_EKulichkova_RUS_vs_APetkovic_GER_WS128_clip.0021.png",NA,NA,NA,NA,NA,NA,NA,NA,NA,NA,NA,NA,NA,NA,NA,NA,NA,NA,NA,NA,NA,NA,NA,NA,NA,NA,NA,NA,NA,NA,NA,NA
"2016_CT6_R01_EKulichkova_RUS_vs_APetkovic_GER_WS128_clip.0022.png",0,0.00999999999999801,1.41599999999744,"http://on-the-t.com/assets/match_images/2016_CT6_R01_EKulichkova_RUS_vs_APetkovic_GER_WS128_clip.0022.png",NA,NA,NA,NA,NA,NA,NA,NA,NA,NA,NA,NA,NA,NA,NA,NA,NA,NA,NA,NA,NA,NA,NA,NA,NA,NA,NA,NA,NA,NA,NA,NA
"2016_CT6_R01_EKulichkova_RUS_vs_APetkovic_GER_WS128_clip.0023.png",0.0099999999999909,0,1.3660000000018,"http://on-the-t.com/assets/match_images/2016_CT6_R01_EKulichkova_RUS_vs_APetkovic_GER_WS128_clip.0023.png",NA,NA,NA,NA,NA,NA,NA,NA,NA,NA,NA,NA,NA,NA,NA,NA,NA,NA,NA,NA,NA,NA,NA,NA,NA,NA,NA,NA,NA,NA,NA,NA
"2016_CT6_R01_EKulichkova_RUS_vs_APetkovic_GER_WS128_clip.0024.png",0,0,1.49500000000262,"http://on-the-t.com/assets/match_images/2016_CT6_R01_EKulichkova_RUS_vs_APetkovic_GER_WS128_clip.0024.png",NA,NA,NA,NA,NA,NA,NA,NA,NA,NA,NA,NA,NA,NA,NA,NA,NA,NA,NA,NA,NA,NA,NA,NA,NA,NA,NA,NA,NA,NA,NA,NA
"2016_CT6_R01_EKulichkova_RUS_vs_APetkovic_GER_WS128_clip.0025.png",0.0099999999999909,0,1.89199999999983,"http://on-the-t.com/assets/match_images/2016_CT6_R01_EKulichkova_RUS_vs_APetkovic_GER_WS128_clip.0025.png",NA,NA,NA,NA,NA,NA,NA,NA,NA,NA,NA,NA,NA,NA,NA,NA,NA,NA,NA,NA,NA,NA,NA,NA,NA,NA,NA,NA,NA,NA,NA,NA
"2016_CT6_R01_EKulichkova_RUS_vs_APetkovic_GER_WS128_clip.0026.png",0.0099999999999909,0,1.36699999999837,"http://on-the-t.com/assets/match_images/2016_CT6_R01_EKulichkova_RUS_vs_APetkovic_GER_WS128_clip.0026.png",NA,FALSE,FALSE,4.5,8,29,6,-15,NA,NA,"TEMP_F@070adf80551af5d71cef3bf301b80077_5f07034f17d58_55.00_26.44_0_1",TRUE,"true",60,55,26.44,56.25,24.67,90,449,54,24.44,83,450,54.62,29.11,94,615,54.12,27.11,89,403
"2016_CT6_R01_EKulichkova_RUS_vs_APetkovic_GER_WS128_clip.0027.png",0,0,1.29699999999866,"http://on-the-t.com/assets/match_images/2016_CT6_R01_EKulichkova_RUS_vs_APetkovic_GER_WS128_clip.0027.png",NA,FALSE,FALSE,4,7.11,30,6,-15,NA,NA,"TEMP_F@07e6a1101ea22ce20cec7b4501f30071_230d7420bcf17_62.38_25.11_0_1",TRUE,"true",61,62.38,25.11,63.5,23.56,93,449,61.5,23.33,80,450,62,27.78,93,615,61.5,25.78,89,403
"2016_CT6_R01_EKulichkova_RUS_vs_APetkovic_GER_WS128_clip.0028.png",0,0,1.38899999999558,"http://on-the-t.com/assets/match_images/2016_CT6_R01_EKulichkova_RUS_vs_APetkovic_GER_WS128_clip.0028.png",NA,NA,NA,NA,NA,NA,NA,NA,NA,NA,NA,NA,NA,NA,NA,NA,NA,NA,NA,NA,NA,NA,NA,NA,NA,NA,NA,NA,NA,NA,NA,NA
"2016_CT6_R01_EKulichkova_RUS_vs_APetkovic_GER_WS128_clip.0029.png",0.0099999999999909,0,1.33400000000256,"http://on-the-t.com/assets/match_images/2016_CT6_R01_EKulichkova_RUS_vs_APetkovic_GER_WS128_clip.0029.png",NA,FALSE,FALSE,5.12,9.11,-38,-16,-12,NA,NA,"TEMP_F@0081d9d3652e075b185d561401570055_fa1ca33d6a2b3_42.88_18.89_0_1",TRUE,"true",65,42.88,18.89,44,16.44,87,449,41.5,17.56,72,450,43.88,22.89,85,615,44.5,19.56,89,403
"2016_CT6_R01_EKulichkova_RUS_vs_APetkovic_GER_WS128_clip.0030.png",0.0099999999999909,0,1.24299999999494,"http://on-the-t.com/assets/match_images/2016_CT6_R01_EKulichkova_RUS_vs_APetkovic_GER_WS128_clip.0030.png",NA,NA,NA,NA,NA,NA,NA,NA,NA,NA,NA,NA,NA,NA,NA,NA,NA,NA,NA,NA,NA,NA,NA,NA,NA,NA,NA,NA,NA,NA,NA,NA
"2016_CT6_R01_EKulichkova_RUS_vs_APetkovic_GER_WS128_clip.0031.png",0,0,1.26000000000204,"http://on-the-t.com/assets/match_images/2016_CT6_R01_EKulichkova_RUS_vs_APetkovic_GER_WS128_clip.0031.png",NA,NA,NA,NA,NA,NA,NA,NA,NA,NA,NA,NA,NA,NA,NA,NA,NA,NA,NA,NA,NA,NA,NA,NA,NA,NA,NA,NA,NA,NA,NA,NA
"2016_CT6_R01_EKulichkova_RUS_vs_APetkovic_GER_WS128_clip.0032.png",0,0.00999999999999801,1.36799999999494,"http://on-the-t.com/assets/match_images/2016_CT6_R01_EKulichkova_RUS_vs_APetkovic_GER_WS128_clip.0032.png",NA,NA,NA,NA,NA,NA,NA,NA,NA,NA,NA,NA,NA,NA,NA,NA,NA,NA,NA,NA,NA,NA,NA,NA,NA,NA,NA,NA,NA,NA,NA,NA
"2016_CT6_R01_EKulichkova_RUS_vs_APetkovic_GER_WS128_clip.0033.png",0,0.0100000000000016,1.31500000000233,"http://on-the-t.com/assets/match_images/2016_CT6_R01_EKulichkova_RUS_vs_APetkovic_GER_WS128_clip.0033.png",NA,NA,NA,NA,NA,NA,NA,NA,NA,NA,NA,NA,NA,NA,NA,NA,NA,NA,NA,NA,NA,NA,NA,NA,NA,NA,NA,NA,NA,NA,NA,NA
"2016_CT6_R01_EKulichkova_RUS_vs_APetkovic_GER_WS128_clip.0034.png",0,0.0100000000000016,1.4519999999975,"http://on-the-t.com/assets/match_images/2016_CT6_R01_EKulichkova_RUS_vs_APetkovic_GER_WS128_clip.0034.png",NA,NA,NA,NA,NA,NA,NA,NA,NA,NA,NA,NA,NA,NA,NA,NA,NA,NA,NA,NA,NA,NA,NA,NA,NA,NA,NA,NA,NA,NA,NA,NA
"2016_CT6_R01_EKulichkova_RUS_vs_APetkovic_GER_WS128_clip.0035.png",0,0,1.4800000000032,"http://on-the-t.com/assets/match_images/2016_CT6_R01_EKulichkova_RUS_vs_APetkovic_GER_WS128_clip.0035.png",NA,NA,NA,NA,NA,NA,NA,NA,NA,NA,NA,NA,NA,NA,NA,NA,NA,NA,NA,NA,NA,NA,NA,NA,NA,NA,NA,NA,NA,NA,NA,NA
"2016_CT6_R01_EKulichkova_RUS_vs_APetkovic_GER_WS128_clip.0036.png",0.0099999999999909,0,1.53500000000349,"http://on-the-t.com/assets/match_images/2016_CT6_R01_EKulichkova_RUS_vs_APetkovic_GER_WS128_clip.0036.png",NA,NA,NA,NA,NA,NA,NA,NA,NA,NA,NA,NA,NA,NA,NA,NA,NA,NA,NA,NA,NA,NA,NA,NA,NA,NA,NA,NA,NA,NA,NA,NA
"2016_CT6_R01_EKulichkova_RUS_vs_APetkovic_GER_WS128_clip.0037.png",0,0,1.3660000000018,"http://on-the-t.com/assets/match_images/2016_CT6_R01_EKulichkova_RUS_vs_APetkovic_GER_WS128_clip.0037.png",NA,NA,NA,NA,NA,NA,NA,NA,NA,NA,NA,NA,NA,NA,NA,NA,NA,NA,NA,NA,NA,NA,NA,NA,NA,NA,NA,NA,NA,NA,NA,NA
"2016_CT6_R01_EKulichkova_RUS_vs_APetkovic_GER_WS128_clip.0038.png",0,0.0199999999999996,1.35800000000017,"http://on-the-t.com/assets/match_images/2016_CT6_R01_EKulichkova_RUS_vs_APetkovic_GER_WS128_clip.0038.png",NA,FALSE,FALSE,4,7.11,3,10,-11,NA,NA,"TEMP_F@033ad4fc7e6c5ada405dcd0d017c007e_8dc54368ca9e4_47.50_28.00_0_1",TRUE,"true",62,47.5,28,48.75,26.67,89,449,46.75,26,72,450,47.5,30,90,615,47.5,28.44,94,403
"2016_CT6_R01_EKulichkova_RUS_vs_APetkovic_GER_WS128_clip.0039.png",0,0.00999999999999801,1.31199999999808,"http://on-the-t.com/assets/match_images/2016_CT6_R01_EKulichkova_RUS_vs_APetkovic_GER_WS128_clip.0039.png",NA,FALSE,FALSE,4.25,7.56,16,3,-6,NA,NA,"TEMP_F@0e78f29a7fe40fd84cf5e0d502110052_5e4557723172e_66.12_18.22_0_1",TRUE,"true",67,66.12,18.22,67.25,16.44,93,449,65.12,16.44,92,450,65.75,20.89,95,615,65.62,18.44,92,403
"2016_CT6_R01_EKulichkova_RUS_vs_APetkovic_GER_WS128_clip.0040.png",0,0.0100000000000016,1.34999999999854,"http://on-the-t.com/assets/match_images/2016_CT6_R01_EKulichkova_RUS_vs_APetkovic_GER_WS128_clip.0040.png",NA,FALSE,FALSE,4.5,8,18,1,-9,NA,NA,"TEMP_F@0693e258573db477774a46560192004d_96798cfac8cb0_50.25_17.11_0_1",TRUE,"true",66,50.25,17.11,51.38,15.11,96,449,49.12,15.11,93,450,49.88,20.22,94,615,49.62,17.78,94,403
"2016_CT6_R01_EKulichkova_RUS_vs_APetkovic_GER_WS128_clip.0041.png",0,0.0100000000000016,1.2980000000025,"http://on-the-t.com/assets/match_images/2016_CT6_R01_EKulichkova_RUS_vs_APetkovic_GER_WS128_clip.0041.png",NA,FALSE,FALSE,4.75,8.44,25,5,-4,NA,NA,"TEMP_F@07e94000260a48a420ce74a0018b0055_0fd4ce1375e67_49.38_18.89_0_1",TRUE,"true",67,49.38,18.89,50.75,17.11,83,449,48.38,16.89,81,450,49,21.78,94,615,48.75,19.11,95,403
"2016_CT6_R01_EKulichkova_RUS_vs_APetkovic_GER_WS128_clip.0042.png",0.0099999999999909,0,1.41100000000006,"http://on-the-t.com/assets/match_images/2016_CT6_R01_EKulichkova_RUS_vs_APetkovic_GER_WS128_clip.0042.png",NA,NA,NA,NA,NA,NA,NA,NA,NA,NA,NA,NA,NA,NA,NA,NA,NA,NA,NA,NA,NA,NA,NA,NA,NA,NA,NA,NA,NA,NA,NA,NA
"2016_CT6_R01_EKulichkova_RUS_vs_APetkovic_GER_WS128_clip.0043.png",0.0099999999999909,0,1.32999999999447,"http://on-the-t.com/assets/match_images/2016_CT6_R01_EKulichkova_RUS_vs_APetkovic_GER_WS128_clip.0043.png",NA,NA,NA,NA,NA,NA,NA,NA,NA,NA,NA,NA,NA,NA,NA,NA,NA,NA,NA,NA,NA,NA,NA,NA,NA,NA,NA,NA,NA,NA,NA,NA
"2016_CT6_R01_EKulichkova_RUS_vs_APetkovic_GER_WS128_clip.0044.png",0.0099999999999909,0,1.30799999999726,"http://on-the-t.com/assets/match_images/2016_CT6_R01_EKulichkova_RUS_vs_APetkovic_GER_WS128_clip.0044.png",NA,NA,NA,NA,NA,NA,NA,NA,NA,NA,NA,NA,NA,NA,NA,NA,NA,NA,NA,NA,NA,NA,NA,NA,NA,NA,NA,NA,NA,NA,NA,NA
"2016_CT6_R01_EKulichkova_RUS_vs_APetkovic_GER_WS128_clip.0045.png",0.0099999999999909,0,1.40999999999622,"http://on-the-t.com/assets/match_images/2016_CT6_R01_EKulichkova_RUS_vs_APetkovic_GER_WS128_clip.0045.png",NA,NA,NA,NA,NA,NA,NA,NA,NA,NA,NA,NA,NA,NA,NA,NA,NA,NA,NA,NA,NA,NA,NA,NA,NA,NA,NA,NA,NA,NA,NA,NA
"2016_CT6_R01_EKulichkova_RUS_vs_APetkovic_GER_WS128_clip.0046.png",0.0099999999999909,0,1.38000000000466,"http://on-the-t.com/assets/match_images/2016_CT6_R01_EKulichkova_RUS_vs_APetkovic_GER_WS128_clip.0046.png",NA,NA,NA,NA,NA,NA,NA,NA,NA,NA,NA,NA,NA,NA,NA,NA,NA,NA,NA,NA,NA,NA,NA,NA,NA,NA,NA,NA,NA,NA,NA,NA
"2016_CT6_R01_EKulichkova_RUS_vs_APetkovic_GER_WS128_clip.0047.png",0,0,1.30800000000454,"http://on-the-t.com/assets/match_images/2016_CT6_R01_EKulichkova_RUS_vs_APetkovic_GER_WS128_clip.0047.png",NA,FALSE,FALSE,4,7.11,32,-1,-12,NA,NA,"TEMP_F@0f46b3ac26e8bb0d7edca7a70192005a_55eeb99fe11d7_50.25_20.00_0_1",TRUE,"true",52,50.25,20,51.25,18.22,94,449,49.25,18.22,86,450,50.25,22.89,94,615,49.5,20.89,93,403
"2016_CT6_R01_EKulichkova_RUS_vs_APetkovic_GER_WS128_clip.0048.png",0,0,1.32200000000012,"http://on-the-t.com/assets/match_images/2016_CT6_R01_EKulichkova_RUS_vs_APetkovic_GER_WS128_clip.0048.png",NA,NA,NA,NA,NA,NA,NA,NA,NA,NA,NA,NA,NA,NA,NA,NA,NA,NA,NA,NA,NA,NA,NA,NA,NA,NA,NA,NA,NA,NA,NA,NA
"2016_CT6_R01_EKulichkova_RUS_vs_APetkovic_GER_WS128_clip.0049.png",0.0099999999999909,0,1.27999999999884,"http://on-the-t.com/assets/match_images/2016_CT6_R01_EKulichkova_RUS_vs_APetkovic_GER_WS128_clip.0049.png",NA,FALSE,FALSE,5.38,9.56,-32,-15,-4,NA,NA,"TEMP_F@05a574063ef1367118fcf2d8019b0056_c7f745bc62def_51.38_19.11_0_1",TRUE,"true",57,51.38,19.11,52.5,16.44,81,449,49.88,17.56,80,450,52.38,22.67,81,615,52.75,19.11,85,403
"2016_CT6_R01_EKulichkova_RUS_vs_APetkovic_GER_WS128_clip.0050.png",0,0.00999999999999801,1.3640000000014,"http://on-the-t.com/assets/match_images/2016_CT6_R01_EKulichkova_RUS_vs_APetkovic_GER_WS128_clip.0050.png",NA,NA,NA,NA,NA,NA,NA,NA,NA,NA,NA,NA,NA,NA,NA,NA,NA,NA,NA,NA,NA,NA,NA,NA,NA,NA,NA,NA,NA,NA,NA,NA
"2016_CT6_R01_EKulichkova_RUS_vs_APetkovic_GER_WS128_clip.0051.png",0,0.0100000000000016,1.26900000000023,"http://on-the-t.com/assets/match_images/2016_CT6_R01_EKulichkova_RUS_vs_APetkovic_GER_WS128_clip.0051.png",NA,NA,NA,NA,NA,NA,NA,NA,NA,NA,NA,NA,NA,NA,NA,NA,NA,NA,NA,NA,NA,NA,NA,NA,NA,NA,NA,NA,NA,NA,NA,NA
"2016_CT6_R01_EKulichkova_RUS_vs_APetkovic_GER_WS128_clip.0052.png",0,0,1.33899999999994,"http://on-the-t.com/assets/match_images/2016_CT6_R01_EKulichkova_RUS_vs_APetkovic_GER_WS128_clip.0052.png",NA,NA,NA,NA,NA,NA,NA,NA,NA,NA,NA,NA,NA,NA,NA,NA,NA,NA,NA,NA,NA,NA,NA,NA,NA,NA,NA,NA,NA,NA,NA,NA
"2016_CT6_R01_EKulichkova_RUS_vs_APetkovic_GER_WS128_clip.0053.png",0,0,1.28300000000309,"http://on-the-t.com/assets/match_images/2016_CT6_R01_EKulichkova_RUS_vs_APetkovic_GER_WS128_clip.0053.png",NA,NA,NA,NA,NA,NA,NA,NA,NA,NA,NA,NA,NA,NA,NA,NA,NA,NA,NA,NA,NA,NA,NA,NA,NA,NA,NA,NA,NA,NA,NA,NA
"2016_CT6_R01_EKulichkova_RUS_vs_APetkovic_GER_WS128_clip.0054.png",0.0099999999999909,0,1.35599999999977,"http://on-the-t.com/assets/match_images/2016_CT6_R01_EKulichkova_RUS_vs_APetkovic_GER_WS128_clip.0054.png",NA,NA,NA,NA,NA,NA,NA,NA,NA,NA,NA,NA,NA,NA,NA,NA,NA,NA,NA,NA,NA,NA,NA,NA,NA,NA,NA,NA,NA,NA,NA,NA
"2016_CT6_R01_EKulichkova_RUS_vs_APetkovic_GER_WS128_clip.0055.png",0,0,1.40499999999884,"http://on-the-t.com/assets/match_images/2016_CT6_R01_EKulichkova_RUS_vs_APetkovic_GER_WS128_clip.0055.png",NA,NA,NA,NA,NA,NA,NA,NA,NA,NA,NA,NA,NA,NA,NA,NA,NA,NA,NA,NA,NA,NA,NA,NA,NA,NA,NA,NA,NA,NA,NA,NA
"2016_CT6_R01_EKulichkova_RUS_vs_APetkovic_GER_WS128_clip.0056.png",0.0099999999999909,0,1.30099999999948,"http://on-the-t.com/assets/match_images/2016_CT6_R01_EKulichkova_RUS_vs_APetkovic_GER_WS128_clip.0056.png",NA,NA,NA,NA,NA,NA,NA,NA,NA,NA,NA,NA,NA,NA,NA,NA,NA,NA,NA,NA,NA,NA,NA,NA,NA,NA,NA,NA,NA,NA,NA,NA
"2016_CT6_R01_EKulichkova_RUS_vs_APetkovic_GER_WS128_clip.0057.png",0.0099999999999909,0,1.50600000000122,"http://on-the-t.com/assets/match_images/2016_CT6_R01_EKulichkova_RUS_vs_APetkovic_GER_WS128_clip.0057.png",NA,FALSE,FALSE,4.25,7.56,26,10,-9,NA,NA,"TEMP_F@077bc8a967e6e8b139a969ee021b006a_29995c3a9140a_67.38_23.56_0_1",TRUE,"true",61,67.38,23.56,68.75,22.22,94,449,66.62,21.56,83,450,67.25,26.22,85,615,66.88,24,95,403
"2016_CT6_R01_EKulichkova_RUS_vs_APetkovic_GER_WS128_clip.0058.png",0,0.0100000000000016,1.33499999999913,"http://on-the-t.com/assets/match_images/2016_CT6_R01_EKulichkova_RUS_vs_APetkovic_GER_WS128_clip.0058.png",NA,FALSE,FALSE,4.5,8,23,-1,7,NA,NA,"TEMP_F@0bbd75687bea6cbf589d2cc201a50085_c99a92b031ec3_52.62_29.56_0_1",TRUE,"true",60,52.62,29.56,53.75,27.56,90,449,51.5,27.56,90,450,52.25,31.78,95,615,51.88,29.11,86,403
"2016_CT6_R01_EKulichkova_RUS_vs_APetkovic_GER_WS128_clip.0059.png",0.0099999999999909,0,1.46500000000378,"http://on-the-t.com/assets/match_images/2016_CT6_R01_EKulichkova_RUS_vs_APetkovic_GER_WS128_clip.0059.png",NA,NA,NA,NA,NA,NA,NA,NA,NA,NA,NA,NA,NA,NA,NA,NA,NA,NA,NA,NA,NA,NA,NA,NA,NA,NA,NA,NA,NA,NA,NA,NA
"2016_CT6_R01_EKulichkova_RUS_vs_APetkovic_GER_WS128_clip.0060.png",0,0.0100000000000016,1.37099999999919,"http://on-the-t.com/assets/match_images/2016_CT6_R01_EKulichkova_RUS_vs_APetkovic_GER_WS128_clip.0060.png",NA,NA,NA,NA,NA,NA,NA,NA,NA,NA,NA,NA,NA,NA,NA,NA,NA,NA,NA,NA,NA,NA,NA,NA,NA,NA,NA,NA,NA,NA,NA,NA
"2016_CT6_R01_EKulichkova_RUS_vs_APetkovic_GER_WS128_clip.0061.png",0.0099999999999909,0,1.44799999999668,"http://on-the-t.com/assets/match_images/2016_CT6_R01_EKulichkova_RUS_vs_APetkovic_GER_WS128_clip.0061.png",NA,NA,NA,NA,NA,NA,NA,NA,NA,NA,NA,NA,NA,NA,NA,NA,NA,NA,NA,NA,NA,NA,NA,NA,NA,NA,NA,NA,NA,NA,NA,NA
"2016_CT6_R01_EKulichkova_RUS_vs_APetkovic_GER_WS128_clip.0062.png",0,0.0100000000000016,1.47600000000239,"http://on-the-t.com/assets/match_images/2016_CT6_R01_EKulichkova_RUS_vs_APetkovic_GER_WS128_clip.0062.png",NA,NA,NA,NA,NA,NA,NA,NA,NA,NA,NA,NA,NA,NA,NA,NA,NA,NA,NA,NA,NA,NA,NA,NA,NA,NA,NA,NA,NA,NA,NA,NA
"2016_CT6_R01_EKulichkova_RUS_vs_APetkovic_GER_WS128_clip.0063.png",0.0099999999999909,0,1.33699999999953,"http://on-the-t.com/assets/match_images/2016_CT6_R01_EKulichkova_RUS_vs_APetkovic_GER_WS128_clip.0063.png",NA,NA,NA,NA,NA,NA,NA,NA,NA,NA,NA,NA,NA,NA,NA,NA,NA,NA,NA,NA,NA,NA,NA,NA,NA,NA,NA,NA,NA,NA,NA,NA
"2016_CT6_R01_EKulichkova_RUS_vs_APetkovic_GER_WS128_clip.0064.png",0.0099999999999909,0,1.32499999999709,"http://on-the-t.com/assets/match_images/2016_CT6_R01_EKulichkova_RUS_vs_APetkovic_GER_WS128_clip.0064.png",NA,NA,NA,NA,NA,NA,NA,NA,NA,NA,NA,NA,NA,NA,NA,NA,NA,NA,NA,NA,NA,NA,NA,NA,NA,NA,NA,NA,NA,NA,NA,NA
"2016_CT6_R01_EKulichkova_RUS_vs_APetkovic_GER_WS128_clip.0065.png",0,0.0100000000000016,1.45899999999529,"http://on-the-t.com/assets/match_images/2016_CT6_R01_EKulichkova_RUS_vs_APetkovic_GER_WS128_clip.0065.png",NA,NA,NA,NA,NA,NA,NA,NA,NA,NA,NA,NA,NA,NA,NA,NA,NA,NA,NA,NA,NA,NA,NA,NA,NA,NA,NA,NA,NA,NA,NA,NA
"2016_CT6_R01_EKulichkova_RUS_vs_APetkovic_GER_WS128_clip.0066.png",0.0099999999999909,0,1.33099999999831,"http://on-the-t.com/assets/match_images/2016_CT6_R01_EKulichkova_RUS_vs_APetkovic_GER_WS128_clip.0066.png",NA,NA,NA,NA,NA,NA,NA,NA,NA,NA,NA,NA,NA,NA,NA,NA,NA,NA,NA,NA,NA,NA,NA,NA,NA,NA,NA,NA,NA,NA,NA,NA
"2016_CT6_R01_EKulichkova_RUS_vs_APetkovic_GER_WS128_clip.0067.png",0.0099999999999909,0,1.30600000000413,"http://on-the-t.com/assets/match_images/2016_CT6_R01_EKulichkova_RUS_vs_APetkovic_GER_WS128_clip.0067.png",NA,NA,NA,NA,NA,NA,NA,NA,NA,NA,NA,NA,NA,NA,NA,NA,NA,NA,NA,NA,NA,NA,NA,NA,NA,NA,NA,NA,NA,NA,NA,NA
"2016_CT6_R01_EKulichkova_RUS_vs_APetkovic_GER_WS128_clip.0068.png",0.0099999999999909,0,1.5,"http://on-the-t.com/assets/match_images/2016_CT6_R01_EKulichkova_RUS_vs_APetkovic_GER_WS128_clip.0068.png",NA,NA,NA,NA,NA,NA,NA,NA,NA,NA,NA,NA,NA,NA,NA,NA,NA,NA,NA,NA,NA,NA,NA,NA,NA,NA,NA,NA,NA,NA,NA,NA
"2016_CT6_R01_EKulichkova_RUS_vs_APetkovic_GER_WS128_clip.0069.png",0,0.0100000000000016,1.19899999999325,"http://on-the-t.com/assets/match_images/2016_CT6_R01_EKulichkova_RUS_vs_APetkovic_GER_WS128_clip.0069.png",NA,NA,NA,NA,NA,NA,NA,NA,NA,NA,NA,NA,NA,NA,NA,NA,NA,NA,NA,NA,NA,NA,NA,NA,NA,NA,NA,NA,NA,NA,NA,NA
"2016_CT6_R01_EKulichkova_RUS_vs_APetkovic_GER_WS128_clip.0070.png",0.0099999999999909,0,1.26200000000244,"http://on-the-t.com/assets/match_images/2016_CT6_R01_EKulichkova_RUS_vs_APetkovic_GER_WS128_clip.0070.png",NA,FALSE,FALSE,4.5,8,-23,1,-18,NA,NA,"TEMP_F@06dc68514102d0aa4248dacb018b007d_f4ab84888bfd4_49.38_27.78_0_1",TRUE,"true",52,49.38,27.78,50.62,26,92,449,48.38,25.78,94,450,49.38,30.89,80,615,50,29.11,90,403
"2016_CT6_R01_EKulichkova_RUS_vs_APetkovic_GER_WS128_clip.0071.png",0.0099999999999909,0,1.24599999999919,"http://on-the-t.com/assets/match_images/2016_CT6_R01_EKulichkova_RUS_vs_APetkovic_GER_WS128_clip.0071.png",NA,FALSE,FALSE,5.5,9.78,-22,0,-21,NA,NA,"TEMP_F@01bc7d9a23088683189f1d5f018b009f_8a29db135df53_49.38_35.33_0_1",TRUE,"true",53,49.38,35.33,50.75,32.89,91,449,48,32.89,90,450,49.25,38.22,86,615,49.88,36.44,85,403
"2016_CT6_R01_EKulichkova_RUS_vs_APetkovic_GER_WS128_clip.0072.png",0,0.00999999999999801,1.52300000000105,"http://on-the-t.com/assets/match_images/2016_CT6_R01_EKulichkova_RUS_vs_APetkovic_GER_WS128_clip.0072.png",NA,NA,NA,NA,NA,NA,NA,NA,NA,NA,NA,NA,NA,NA,NA,NA,NA,NA,NA,NA,NA,NA,NA,NA,NA,NA,NA,NA,NA,NA,NA,NA
"2016_CT6_R01_EKulichkova_RUS_vs_APetkovic_GER_WS128_clip.0073.png",0.0099999999999909,0,2.81399999999849,"http://on-the-t.com/assets/match_images/2016_CT6_R01_EKulichkova_RUS_vs_APetkovic_GER_WS128_clip.0073.png",NA,NA,NA,NA,NA,NA,NA,NA,NA,NA,NA,NA,NA,NA,NA,NA,NA,NA,NA,NA,NA,NA,NA,NA,NA,NA,NA,NA,NA,NA,NA,NA
"2016_CT6_R01_EKulichkova_RUS_vs_APetkovic_GER_WS128_clip.0074.png",0.0099999999999909,0,1.40000000000146,"http://on-the-t.com/assets/match_images/2016_CT6_R01_EKulichkova_RUS_vs_APetkovic_GER_WS128_clip.0074.png",NA,NA,NA,NA,NA,NA,NA,NA,NA,NA,NA,NA,NA,NA,NA,NA,NA,NA,NA,NA,NA,NA,NA,NA,NA,NA,NA,NA,NA,NA,NA,NA
"2016_CT6_R01_EKulichkova_RUS_vs_APetkovic_GER_WS128_clip.0075.png",0.0099999999999909,0,1.43299999999726,"http://on-the-t.com/assets/match_images/2016_CT6_R01_EKulichkova_RUS_vs_APetkovic_GER_WS128_clip.0075.png",NA,NA,NA,NA,NA,NA,NA,NA,NA,NA,NA,NA,NA,NA,NA,NA,NA,NA,NA,NA,NA,NA,NA,NA,NA,NA,NA,NA,NA,NA,NA,NA
"2016_CT6_R01_EKulichkova_RUS_vs_APetkovic_GER_WS128_clip.0076.png",0.0099999999999909,0,1.40000000000146,"http://on-the-t.com/assets/match_images/2016_CT6_R01_EKulichkova_RUS_vs_APetkovic_GER_WS128_clip.0076.png",NA,NA,NA,NA,NA,NA,NA,NA,NA,NA,NA,NA,NA,NA,NA,NA,NA,NA,NA,NA,NA,NA,NA,NA,NA,NA,NA,NA,NA,NA,NA,NA
"2016_CT6_R01_EKulichkova_RUS_vs_APetkovic_GER_WS128_clip.0077.png",0,0.0100000000000016,1.43699999999808,"http://on-the-t.com/assets/match_images/2016_CT6_R01_EKulichkova_RUS_vs_APetkovic_GER_WS128_clip.0077.png",NA,NA,NA,NA,NA,NA,NA,NA,NA,NA,NA,NA,NA,NA,NA,NA,NA,NA,NA,NA,NA,NA,NA,NA,NA,NA,NA,NA,NA,NA,NA,NA
"2016_CT6_R01_EKulichkova_RUS_vs_APetkovic_GER_WS128_clip.0078.png",0.0099999999999909,0,1.63300000000163,"http://on-the-t.com/assets/match_images/2016_CT6_R01_EKulichkova_RUS_vs_APetkovic_GER_WS128_clip.0078.png",NA,NA,NA,NA,NA,NA,NA,NA,NA,NA,NA,NA,NA,NA,NA,NA,NA,NA,NA,NA,NA,NA,NA,NA,NA,NA,NA,NA,NA,NA,NA,NA
"2016_CT6_R01_EKulichkova_RUS_vs_APetkovic_GER_WS128_clip.0079.png",0.0099999999999909,0,1.46899999999732,"http://on-the-t.com/assets/match_images/2016_CT6_R01_EKulichkova_RUS_vs_APetkovic_GER_WS128_clip.0079.png",NA,FALSE,FALSE,4.5,8,26,8,-10,NA,NA,"TEMP_F@072923cd6a7ca314254d881e016f0062_5468ec8ac7fff_45.88_21.78_0_1",TRUE,"true",63,45.88,21.78,47.25,20.22,93,449,45,19.78,92,450,45.5,24.44,93,615,45.25,22.22,95,403
"2016_CT6_R01_EKulichkova_RUS_vs_APetkovic_GER_WS128_clip.0080.png",0.0099999999999909,0,1.36800000000221,"http://on-the-t.com/assets/match_images/2016_CT6_R01_EKulichkova_RUS_vs_APetkovic_GER_WS128_clip.0080.png",NA,FALSE,FALSE,4.75,8.44,20,5,-10,NA,NA,"TEMP_F@08b6da8058aad5497c39b0ff01fe005c_ea2fd2a38ee4c_63.75_20.44_0_1",TRUE,"true",64,63.75,20.44,65.12,18.67,94,449,62.75,18.44,93,450,63.62,23.56,95,615,63.25,21.11,93,403
"2016_CT6_R01_EKulichkova_RUS_vs_APetkovic_GER_WS128_clip.0081.png",0.0099999999999909,0,1.31300000000192,"http://on-the-t.com/assets/match_images/2016_CT6_R01_EKulichkova_RUS_vs_APetkovic_GER_WS128_clip.0081.png",NA,FALSE,FALSE,4.5,8,21,3,-11,NA,NA,"TEMP_F@007ca23754c24d8840ecca4801c7005e_327414b97e05f_56.88_20.89_0_1",TRUE,"true",66,56.88,20.89,58.12,19.11,88,449,55.88,18.89,79,450,56.75,24,95,615,56.38,21.78,95,403
"2016_CT6_R01_EKulichkova_RUS_vs_APetkovic_GER_WS128_clip.0082.png",0.0099999999999909,0,1.35900000000402,"http://on-the-t.com/assets/match_images/2016_CT6_R01_EKulichkova_RUS_vs_APetkovic_GER_WS128_clip.0082.png",NA,FALSE,FALSE,4.75,8.44,17,-10,3,NA,NA,"TEMP_F@041d378813f687a13380f39f01c1005d_45e77102656ae_56.12_20.67_0_1",TRUE,"true",61,56.12,20.67,57.12,18.22,95,449,54.75,19.11,83,450,56,23.33,94,615,55.62,20.67,92,403
"2016_CT6_R01_EKulichkova_RUS_vs_APetkovic_GER_WS128_clip.0083.png",0,0,1.37999999999738,"http://on-the-t.com/assets/match_images/2016_CT6_R01_EKulichkova_RUS_vs_APetkovic_GER_WS128_clip.0083.png",NA,FALSE,FALSE,4.5,8,21,3,-12,NA,NA,"TEMP_F@0344aa743755d7241ee212a601bd004a_30f214972b6ab_55.62_16.44_0_1",TRUE,"true",64,55.62,16.44,56.75,14.44,93,449,54.5,14.44,87,450,55.12,19.11,90,615,54.88,16.89,84,403
"2016_CT6_R01_EKulichkova_RUS_vs_APetkovic_GER_WS128_clip.0084.png",0,0,1.52199999999721,"http://on-the-t.com/assets/match_images/2016_CT6_R01_EKulichkova_RUS_vs_APetkovic_GER_WS128_clip.0084.png",NA,NA,NA,NA,NA,NA,NA,NA,NA,NA,NA,NA,NA,NA,NA,NA,NA,NA,NA,NA,NA,NA,NA,NA,NA,NA,NA,NA,NA,NA,NA,NA
"2016_CT6_R01_EKulichkova_RUS_vs_APetkovic_GER_WS128_clip.0085.png",0,0,1.4429999999993,"http://on-the-t.com/assets/match_images/2016_CT6_R01_EKulichkova_RUS_vs_APetkovic_GER_WS128_clip.0085.png",NA,NA,NA,NA,NA,NA,NA,NA,NA,NA,NA,NA,NA,NA,NA,NA,NA,NA,NA,NA,NA,NA,NA,NA,NA,NA,NA,NA,NA,NA,NA,NA
"2016_CT6_R01_EKulichkova_RUS_vs_APetkovic_GER_WS128_clip.0086.png",0.0099999999999909,0,1.42299999999523,"http://on-the-t.com/assets/match_images/2016_CT6_R01_EKulichkova_RUS_vs_APetkovic_GER_WS128_clip.0086.png",NA,NA,NA,NA,NA,NA,NA,NA,NA,NA,NA,NA,NA,NA,NA,NA,NA,NA,NA,NA,NA,NA,NA,NA,NA,NA,NA,NA,NA,NA,NA,NA
"2016_CT6_R01_EKulichkova_RUS_vs_APetkovic_GER_WS128_clip.0087.png",0.0099999999999909,0,1.3269999999975,"http://on-the-t.com/assets/match_images/2016_CT6_R01_EKulichkova_RUS_vs_APetkovic_GER_WS128_clip.0087.png",NA,NA,NA,NA,NA,NA,NA,NA,NA,NA,NA,NA,NA,NA,NA,NA,NA,NA,NA,NA,NA,NA,NA,NA,NA,NA,NA,NA,NA,NA,NA,NA
"2016_CT6_R01_EKulichkova_RUS_vs_APetkovic_GER_WS128_clip.0088.png",0.0099999999999909,0,1.43999999999505,"http://on-the-t.com/assets/match_images/2016_CT6_R01_EKulichkova_RUS_vs_APetkovic_GER_WS128_clip.0088.png",NA,NA,NA,NA,NA,NA,NA,NA,NA,NA,NA,NA,NA,NA,NA,NA,NA,NA,NA,NA,NA,NA,NA,NA,NA,NA,NA,NA,NA,NA,NA,NA
"2016_CT6_R01_EKulichkova_RUS_vs_APetkovic_GER_WS128_clip.0089.png",0,0,1.44900000000052,"http://on-the-t.com/assets/match_images/2016_CT6_R01_EKulichkova_RUS_vs_APetkovic_GER_WS128_clip.0089.png",NA,NA,NA,NA,NA,NA,NA,NA,NA,NA,NA,NA,NA,NA,NA,NA,NA,NA,NA,NA,NA,NA,NA,NA,NA,NA,NA,NA,NA,NA,NA,NA
"2016_CT6_R01_EKulichkova_RUS_vs_APetkovic_GER_WS128_clip.0090.png",0.0099999999999909,0,1.47999999999593,"http://on-the-t.com/assets/match_images/2016_CT6_R01_EKulichkova_RUS_vs_APetkovic_GER_WS128_clip.0090.png",NA,NA,NA,NA,NA,NA,NA,NA,NA,NA,NA,NA,NA,NA,NA,NA,NA,NA,NA,NA,NA,NA,NA,NA,NA,NA,NA,NA,NA,NA,NA,NA
"2016_CT6_R01_EKulichkova_RUS_vs_APetkovic_GER_WS128_clip.0091.png",0.0099999999999909,0,1.44999999999709,"http://on-the-t.com/assets/match_images/2016_CT6_R01_EKulichkova_RUS_vs_APetkovic_GER_WS128_clip.0091.png",NA,FALSE,FALSE,6.75,12,-3,-1,-9,NA,NA,"TEMP_F@0370d2937cc7368f47a4891c01a10081_4f33996b11869_52.12_28.67_0_1",TRUE,"true",52,52.12,28.67,53.88,25.78,71,449,50.5,26,86,450,52.38,32.67,92,615,52.38,30,95,403
"2016_CT6_R01_EKulichkova_RUS_vs_APetkovic_GER_WS128_clip.0092.png",0,0,1.3640000000014,"http://on-the-t.com/assets/match_images/2016_CT6_R01_EKulichkova_RUS_vs_APetkovic_GER_WS128_clip.0092.png",NA,FALSE,FALSE,8,14.22,-10,-1,-5,NA,NA,"TEMP_F@086fb54a50b458147113a3d101a7008f_9d88b8f0f4514_52.88_31.78_0_1",TRUE,"true",63,52.88,31.78,54.88,28.22,85,449,50.88,28.22,95,450,52.88,36.22,97,615,53.25,32.44,94,403
"2016_CT6_R01_EKulichkova_RUS_vs_APetkovic_GER_WS128_clip.0093.png",0.0099999999999909,0,1.32400000000052,"http://on-the-t.com/assets/match_images/2016_CT6_R01_EKulichkova_RUS_vs_APetkovic_GER_WS128_clip.0093.png",NA,NA,NA,NA,NA,NA,NA,NA,NA,NA,NA,NA,NA,NA,NA,NA,NA,NA,NA,NA,NA,NA,NA,NA,NA,NA,NA,NA,NA,NA,NA,NA
"2016_CT6_R01_EKulichkova_RUS_vs_APetkovic_GER_WS128_clip.0094.png",0,0,1.40299999999843,"http://on-the-t.com/assets/match_images/2016_CT6_R01_EKulichkova_RUS_vs_APetkovic_GER_WS128_clip.0094.png",NA,NA,NA,NA,NA,NA,NA,NA,NA,NA,NA,NA,NA,NA,NA,NA,NA,NA,NA,NA,NA,NA,NA,NA,NA,NA,NA,NA,NA,NA,NA,NA
"2016_CT6_R01_EKulichkova_RUS_vs_APetkovic_GER_WS128_clip.0095.png",0,0,1.31300000000192,"http://on-the-t.com/assets/match_images/2016_CT6_R01_EKulichkova_RUS_vs_APetkovic_GER_WS128_clip.0095.png",NA,NA,NA,NA,NA,NA,NA,NA,NA,NA,NA,NA,NA,NA,NA,NA,NA,NA,NA,NA,NA,NA,NA,NA,NA,NA,NA,NA,NA,NA,NA,NA
"2016_CT6_R01_EKulichkova_RUS_vs_APetkovic_GER_WS128_clip.0096.png",0,0.00999999999999801,1.50499999999738,"http://on-the-t.com/assets/match_images/2016_CT6_R01_EKulichkova_RUS_vs_APetkovic_GER_WS128_clip.0096.png",NA,NA,NA,NA,NA,NA,NA,NA,NA,NA,NA,NA,NA,NA,NA,NA,NA,NA,NA,NA,NA,NA,NA,NA,NA,NA,NA,NA,NA,NA,NA,NA
"2016_CT6_R01_EKulichkova_RUS_vs_APetkovic_GER_WS128_clip.0097.png",0.0099999999999909,0,1.35300000000279,"http://on-the-t.com/assets/match_images/2016_CT6_R01_EKulichkova_RUS_vs_APetkovic_GER_WS128_clip.0097.png",NA,NA,NA,NA,NA,NA,NA,NA,NA,NA,NA,NA,NA,NA,NA,NA,NA,NA,NA,NA,NA,NA,NA,NA,NA,NA,NA,NA,NA,NA,NA,NA
"2016_CT6_R01_EKulichkova_RUS_vs_APetkovic_GER_WS128_clip.0098.png",0.0099999999999909,0,1.43799999999464,"http://on-the-t.com/assets/match_images/2016_CT6_R01_EKulichkova_RUS_vs_APetkovic_GER_WS128_clip.0098.png",NA,FALSE,FALSE,8.25,14.67,-1,2,-10,NA,NA,"TEMP_F@067a0dcc3a10bcd06a22147e01ad0085_92f24c3258e9d_53.62_29.56_0_1",TRUE,"true",53,53.62,29.56,55.75,26,71,449,51.62,26,84,450,53.75,34.44,95,615,53.75,30.67,91,403
"2016_CT6_R01_EKulichkova_RUS_vs_APetkovic_GER_WS128_clip.0099.png",0.0099999999999909,0,2.46899999999732,"http://on-the-t.com/assets/match_images/2016_CT6_R01_EKulichkova_RUS_vs_APetkovic_GER_WS128_clip.0099.png",NA,FALSE,FALSE,8,14.22,-22,4,-8,NA,NA,"TEMP_F@00682ce964faa2b8448ed25801c2007e_43f4c5d1fb45e_56.25_28.00_0_1",TRUE,"true",54,56.25,28,58.62,25.11,67,449,54.62,24.22,91,450,56.62,32.67,88,615,57.5,29.33,93,403
"2016_CT6_R01_EKulichkova_RUS_vs_APetkovic_GER_WS128_clip.0100.png",0.0099999999999909,0,1.33400000000256,"http://on-the-t.com/assets/match_images/2016_CT6_R01_EKulichkova_RUS_vs_APetkovic_GER_WS128_clip.0100.png",NA,NA,NA,NA,NA,NA,NA,NA,NA,NA,NA,NA,NA,NA,NA,NA,NA,NA,NA,NA,NA,NA,NA,NA,NA,NA,NA,NA,NA,NA,NA,NA
"2016_CT6_R01_EKulichkova_RUS_vs_APetkovic_GER_WS128_clip.0101.png",0.0099999999999909,0,1.44900000000052,"http://on-the-t.com/assets/match_images/2016_CT6_R01_EKulichkova_RUS_vs_APetkovic_GER_WS128_clip.0101.png",NA,FALSE,FALSE,9,16,8,6,-11,NA,NA,"TEMP_F@0c6a41261445cea1463c638201860095_226921a703050_48.75_33.11_0_1",TRUE,"true",63,48.75,33.11,51.25,29.56,86,449,46.75,28.89,75,450,48.62,38.22,96,615,48.38,34,95,403
"2016_CT6_R01_EKulichkova_RUS_vs_APetkovic_GER_WS128_clip.0102.png",0.0099999999999909,0,1.46199999999953,"http://on-the-t.com/assets/match_images/2016_CT6_R01_EKulichkova_RUS_vs_APetkovic_GER_WS128_clip.0102.png",NA,NA,NA,NA,NA,NA,NA,NA,NA,NA,NA,NA,NA,NA,NA,NA,NA,NA,NA,NA,NA,NA,NA,NA,NA,NA,NA,NA,NA,NA,NA,NA
"2016_CT6_R01_EKulichkova_RUS_vs_APetkovic_GER_WS128_clip.0103.png",0.0099999999999909,0,1.47000000000116,"http://on-the-t.com/assets/match_images/2016_CT6_R01_EKulichkova_RUS_vs_APetkovic_GER_WS128_clip.0103.png",NA,FALSE,FALSE,8.25,14.67,-2,-1,1,NA,NA,"TEMP_F@0de8f68c575df407204c0fba01840084_fb2969f50cff4_48.50_29.33_0_1",TRUE,"true",60,48.5,29.33,50.62,25.78,98,449,46.5,25.78,98,450,48.88,35.11,93,615,48.75,29.78,94,403
"2016_CT6_R01_EKulichkova_RUS_vs_APetkovic_GER_WS128_clip.0104.png",0.0099999999999909,0,1.49599999999919,"http://on-the-t.com/assets/match_images/2016_CT6_R01_EKulichkova_RUS_vs_APetkovic_GER_WS128_clip.0104.png",NA,FALSE,FALSE,8.5,15.11,-1,0,-2,NA,NA,"TEMP_F@093197f126b530a408151bc301870093_c23ab31de3435_48.88_32.67_0_1",TRUE,"true",64,48.88,32.67,51.12,29.11,73,449,46.88,28.89,63,450,48.88,37.78,94,615,49,32.89,94,403
"2016_CT6_R01_EKulichkova_RUS_vs_APetkovic_GER_WS128_clip.0105.png",0.0099999999999909,0,1.46700000000419,"http://on-the-t.com/assets/match_images/2016_CT6_R01_EKulichkova_RUS_vs_APetkovic_GER_WS128_clip.0105.png",NA,NA,NA,NA,NA,NA,NA,NA,NA,NA,NA,NA,NA,NA,NA,NA,NA,NA,NA,NA,NA,NA,NA,NA,NA,NA,NA,NA,NA,NA,NA,NA
"2016_CT6_R01_EKulichkova_RUS_vs_APetkovic_GER_WS128_clip.0106.png",0.0099999999999909,0,1.46100000000297,"http://on-the-t.com/assets/match_images/2016_CT6_R01_EKulichkova_RUS_vs_APetkovic_GER_WS128_clip.0106.png",NA,NA,NA,NA,NA,NA,NA,NA,NA,NA,NA,NA,NA,NA,NA,NA,NA,NA,NA,NA,NA,NA,NA,NA,NA,NA,NA,NA,NA,NA,NA,NA
"2016_CT6_R01_EKulichkova_RUS_vs_APetkovic_GER_WS128_clip.0107.png",0.0099999999999909,0,1.67200000000594,"http://on-the-t.com/assets/match_images/2016_CT6_R01_EKulichkova_RUS_vs_APetkovic_GER_WS128_clip.0107.png",NA,NA,NA,NA,NA,NA,NA,NA,NA,NA,NA,NA,NA,NA,NA,NA,NA,NA,NA,NA,NA,NA,NA,NA,NA,NA,NA,NA,NA,NA,NA,NA
"2016_CT6_R01_EKulichkova_RUS_vs_APetkovic_GER_WS128_clip.0108.png",0.0099999999999909,0,1.50800000000163,"http://on-the-t.com/assets/match_images/2016_CT6_R01_EKulichkova_RUS_vs_APetkovic_GER_WS128_clip.0108.png",NA,NA,NA,NA,NA,NA,NA,NA,NA,NA,NA,NA,NA,NA,NA,NA,NA,NA,NA,NA,NA,NA,NA,NA,NA,NA,NA,NA,NA,NA,NA,NA
"2016_CT6_R01_EKulichkova_RUS_vs_APetkovic_GER_WS128_clip.0109.png",0.0099999999999909,0,1.39800000000105,"http://on-the-t.com/assets/match_images/2016_CT6_R01_EKulichkova_RUS_vs_APetkovic_GER_WS128_clip.0109.png",NA,NA,NA,NA,NA,NA,NA,NA,NA,NA,NA,NA,NA,NA,NA,NA,NA,NA,NA,NA,NA,NA,NA,NA,NA,NA,NA,NA,NA,NA,NA,NA
"2016_CT6_R01_EKulichkova_RUS_vs_APetkovic_GER_WS128_clip.0110.png",0,0.00999999999999801,1.55799999999726,"http://on-the-t.com/assets/match_images/2016_CT6_R01_EKulichkova_RUS_vs_APetkovic_GER_WS128_clip.0110.png",NA,NA,NA,NA,NA,NA,NA,NA,NA,NA,NA,NA,NA,NA,NA,NA,NA,NA,NA,NA,NA,NA,NA,NA,NA,NA,NA,NA,NA,NA,NA,NA
"2016_CT6_R01_EKulichkova_RUS_vs_APetkovic_GER_WS128_clip.0111.png",0,0.0100000000000016,1.35599999999977,"http://on-the-t.com/assets/match_images/2016_CT6_R01_EKulichkova_RUS_vs_APetkovic_GER_WS128_clip.0111.png",NA,NA,NA,NA,NA,NA,NA,NA,NA,NA,NA,NA,NA,NA,NA,NA,NA,NA,NA,NA,NA,NA,NA,NA,NA,NA,NA,NA,NA,NA,NA,NA
"2016_CT6_R01_EKulichkova_RUS_vs_APetkovic_GER_WS128_clip.0112.png",0.0099999999999909,0,1.27300000000105,"http://on-the-t.com/assets/match_images/2016_CT6_R01_EKulichkova_RUS_vs_APetkovic_GER_WS128_clip.0112.png",NA,NA,NA,NA,NA,NA,NA,NA,NA,NA,NA,NA,NA,NA,NA,NA,NA,NA,NA,NA,NA,NA,NA,NA,NA,NA,NA,NA,NA,NA,NA,NA
"2016_CT6_R01_GMonfils_FRA_vs_YSugita_JPN_MS137_clip.0001.png",0,0,1.50499999999738,"http://on-the-t.com/assets/match_images/2016_CT6_R01_GMonfils_FRA_vs_YSugita_JPN_MS137_clip.0001.png",NA,NA,NA,NA,NA,NA,NA,NA,NA,NA,NA,NA,NA,NA,NA,NA,NA,NA,NA,NA,NA,NA,NA,NA,NA,NA,NA,NA,NA,NA,NA,NA
"2016_CT6_R01_GMonfils_FRA_vs_YSugita_JPN_MS137_clip.0002.png",0,0.00999999999999801,1.49599999999919,"http://on-the-t.com/assets/match_images/2016_CT6_R01_GMonfils_FRA_vs_YSugita_JPN_MS137_clip.0002.png",NA,NA,NA,NA,NA,NA,NA,NA,NA,NA,NA,NA,NA,NA,NA,NA,NA,NA,NA,NA,NA,NA,NA,NA,NA,NA,NA,NA,NA,NA,NA,NA
"2016_CT6_R01_GMonfils_FRA_vs_YSugita_JPN_MS137_clip.0003.png",0,0.0100000000000016,1.55999999999767,"http://on-the-t.com/assets/match_images/2016_CT6_R01_GMonfils_FRA_vs_YSugita_JPN_MS137_clip.0003.png",NA,NA,NA,NA,NA,NA,NA,NA,NA,NA,NA,NA,NA,NA,NA,NA,NA,NA,NA,NA,NA,NA,NA,NA,NA,NA,NA,NA,NA,NA,NA,NA
"2016_CT6_R01_GMonfils_FRA_vs_YSugita_JPN_MS137_clip.0004.png",0,0.00999999999999801,1.55399999999645,"http://on-the-t.com/assets/match_images/2016_CT6_R01_GMonfils_FRA_vs_YSugita_JPN_MS137_clip.0004.png",NA,NA,NA,NA,NA,NA,NA,NA,NA,NA,NA,NA,NA,NA,NA,NA,NA,NA,NA,NA,NA,NA,NA,NA,NA,NA,NA,NA,NA,NA,NA,NA
"2016_CT6_R01_GMonfils_FRA_vs_YSugita_JPN_MS137_clip.0005.png",0.0099999999999909,0,1.52799999999843,"http://on-the-t.com/assets/match_images/2016_CT6_R01_GMonfils_FRA_vs_YSugita_JPN_MS137_clip.0005.png",NA,NA,NA,NA,NA,NA,NA,NA,NA,NA,NA,NA,NA,NA,NA,NA,NA,NA,NA,NA,NA,NA,NA,NA,NA,NA,NA,NA,NA,NA,NA,NA
"2016_CT6_R01_GMonfils_FRA_vs_YSugita_JPN_MS137_clip.0006.png",0,0.0100000000000016,1.48799999999756,"http://on-the-t.com/assets/match_images/2016_CT6_R01_GMonfils_FRA_vs_YSugita_JPN_MS137_clip.0006.png",NA,NA,NA,NA,NA,NA,NA,NA,NA,NA,NA,NA,NA,NA,NA,NA,NA,NA,NA,NA,NA,NA,NA,NA,NA,NA,NA,NA,NA,NA,NA,NA
"2016_CT6_R01_GMonfils_FRA_vs_YSugita_JPN_MS137_clip.0007.png",0.0099999999999909,0,1.55500000000029,"http://on-the-t.com/assets/match_images/2016_CT6_R01_GMonfils_FRA_vs_YSugita_JPN_MS137_clip.0007.png",NA,NA,NA,NA,NA,NA,NA,NA,NA,NA,NA,NA,NA,NA,NA,NA,NA,NA,NA,NA,NA,NA,NA,NA,NA,NA,NA,NA,NA,NA,NA,NA
"2016_CT6_R01_GMonfils_FRA_vs_YSugita_JPN_MS137_clip.0008.png",0.0099999999999909,0,1.56999999999971,"http://on-the-t.com/assets/match_images/2016_CT6_R01_GMonfils_FRA_vs_YSugita_JPN_MS137_clip.0008.png",NA,NA,NA,NA,NA,NA,NA,NA,NA,NA,NA,NA,NA,NA,NA,NA,NA,NA,NA,NA,NA,NA,NA,NA,NA,NA,NA,NA,NA,NA,NA,NA
"2016_CT6_R01_GMonfils_FRA_vs_YSugita_JPN_MS137_clip.0009.png",0,0,1.32800000000134,"http://on-the-t.com/assets/match_images/2016_CT6_R01_GMonfils_FRA_vs_YSugita_JPN_MS137_clip.0009.png",NA,NA,NA,NA,NA,NA,NA,NA,NA,NA,NA,NA,NA,NA,NA,NA,NA,NA,NA,NA,NA,NA,NA,NA,NA,NA,NA,NA,NA,NA,NA,NA
"2016_CT6_R01_GMonfils_FRA_vs_YSugita_JPN_MS137_clip.0010.png",0,0.0100000000000016,1.3859999999986,"http://on-the-t.com/assets/match_images/2016_CT6_R01_GMonfils_FRA_vs_YSugita_JPN_MS137_clip.0010.png",NA,NA,NA,NA,NA,NA,NA,NA,NA,NA,NA,NA,NA,NA,NA,NA,NA,NA,NA,NA,NA,NA,NA,NA,NA,NA,NA,NA,NA,NA,NA,NA
"2016_CT6_R01_GMonfils_FRA_vs_YSugita_JPN_MS137_clip.0011.png",0,0,1.33800000000338,"http://on-the-t.com/assets/match_images/2016_CT6_R01_GMonfils_FRA_vs_YSugita_JPN_MS137_clip.0011.png",NA,NA,NA,NA,NA,NA,NA,NA,NA,NA,NA,NA,NA,NA,NA,NA,NA,NA,NA,NA,NA,NA,NA,NA,NA,NA,NA,NA,NA,NA,NA,NA
"2016_CT6_R01_GMonfils_FRA_vs_YSugita_JPN_MS137_clip.0012.png",0.0099999999999909,0,1.49300000000221,"http://on-the-t.com/assets/match_images/2016_CT6_R01_GMonfils_FRA_vs_YSugita_JPN_MS137_clip.0012.png",NA,NA,NA,NA,NA,NA,NA,NA,NA,NA,NA,NA,NA,NA,NA,NA,NA,NA,NA,NA,NA,NA,NA,NA,NA,NA,NA,NA,NA,NA,NA,NA
"2016_CT6_R01_GMonfils_FRA_vs_YSugita_JPN_MS137_clip.0013.png",0,0.0100000000000016,1.43299999999726,"http://on-the-t.com/assets/match_images/2016_CT6_R01_GMonfils_FRA_vs_YSugita_JPN_MS137_clip.0013.png",NA,NA,NA,NA,NA,NA,NA,NA,NA,NA,NA,NA,NA,NA,NA,NA,NA,NA,NA,NA,NA,NA,NA,NA,NA,NA,NA,NA,NA,NA,NA,NA
