"file","time.user.self","time.sys.self","time.elapsed","topLeftX","topLeftY","width","height","leftEyeCenterX","leftEyeCenterY","rightEyeCenterX","rightEyeCenterY","noseTipX","noseTipY","noseBtwEyesX","noseBtwEyesY","chinTipX","chinTipY","leftEyeCornerLeftX","leftEyeCornerLeftY","leftEyeCornerRightX","leftEyeCornerRightY","rightEyeCornerLeftX","rightEyeCornerLeftY","rightEyeCornerRightX","rightEyeCornerRightY","rightEarTragusX","rightEarTragusY","leftEarTragusX","leftEarTragusY","leftEyeBrowLeftX","leftEyeBrowLeftY","leftEyeBrowMiddleX","leftEyeBrowMiddleY","leftEyeBrowRightX","leftEyeBrowRightY","rightEyeBrowLeftX","rightEyeBrowLeftY","rightEyeBrowMiddleX","rightEyeBrowMiddleY","rightEyeBrowRightX","rightEyeBrowRightY","nostrilLeftHoleBottomX","nostrilLeftHoleBottomY","nostrilRightHoleBottomX","nostrilRightHoleBottomY","nostrilLeftSideX","nostrilLeftSideY","nostrilRightSideX","nostrilRightSideY","lipCornerLeftX","lipCornerLeftY","lipLineMiddleX","lipLineMiddleY","lipCornerRightX","lipCornerRightY","pitch","yaw","roll","attributes.gender.time","attributes.gender.type","attributes.gender.confidence"
"2016_CT6_R01_BJovanovski_SRB_vs_ACornet_FRA_WS163_clip.0001.png",0.169999999999995,0,3.71600000000035,NA,NA,NA,NA,NA,NA,NA,NA,NA,NA,NA,NA,NA,NA,NA,NA,NA,NA,NA,NA,NA,NA,NA,NA,NA,NA,NA,NA,NA,NA,NA,NA,NA,NA,NA,NA,NA,NA,NA,NA,NA,NA,NA,NA,NA,NA,NA,NA,NA,NA,NA,NA,NA,NA,NA,NA,NA,NA
"2016_CT6_R01_BJovanovski_SRB_vs_ACornet_FRA_WS163_clip.0002.png",0.140000000000001,0.01,3.59699999999975,NA,NA,NA,NA,NA,NA,NA,NA,NA,NA,NA,NA,NA,NA,NA,NA,NA,NA,NA,NA,NA,NA,NA,NA,NA,NA,NA,NA,NA,NA,NA,NA,NA,NA,NA,NA,NA,NA,NA,NA,NA,NA,NA,NA,NA,NA,NA,NA,NA,NA,NA,NA,NA,NA,NA,NA,NA,NA
"2016_CT6_R01_BJovanovski_SRB_vs_ACornet_FRA_WS163_clip.0003.png",0.149999999999999,0.01,3.56999999999971,NA,NA,NA,NA,NA,NA,NA,NA,NA,NA,NA,NA,NA,NA,NA,NA,NA,NA,NA,NA,NA,NA,NA,NA,NA,NA,NA,NA,NA,NA,NA,NA,NA,NA,NA,NA,NA,NA,NA,NA,NA,NA,NA,NA,NA,NA,NA,NA,NA,NA,NA,NA,NA,NA,NA,NA,NA,NA
"2016_CT6_R01_BJovanovski_SRB_vs_ACornet_FRA_WS163_clip.0004.png",0.140000000000001,0.02,3.41399999999976,NA,NA,NA,NA,NA,NA,NA,NA,NA,NA,NA,NA,NA,NA,NA,NA,NA,NA,NA,NA,NA,NA,NA,NA,NA,NA,NA,NA,NA,NA,NA,NA,NA,NA,NA,NA,NA,NA,NA,NA,NA,NA,NA,NA,NA,NA,NA,NA,NA,NA,NA,NA,NA,NA,NA,NA,NA,NA
"2016_CT6_R01_BJovanovski_SRB_vs_ACornet_FRA_WS163_clip.0005.png",0.140000000000001,0.01,3.53200000000015,NA,NA,NA,NA,NA,NA,NA,NA,NA,NA,NA,NA,NA,NA,NA,NA,NA,NA,NA,NA,NA,NA,NA,NA,NA,NA,NA,NA,NA,NA,NA,NA,NA,NA,NA,NA,NA,NA,NA,NA,NA,NA,NA,NA,NA,NA,NA,NA,NA,NA,NA,NA,NA,NA,NA,NA,NA,NA
"2016_CT6_R01_BJovanovski_SRB_vs_ACornet_FRA_WS163_clip.0006.png",0.149999999999999,0.01,3.5630000000001,NA,NA,NA,NA,NA,NA,NA,NA,NA,NA,NA,NA,NA,NA,NA,NA,NA,NA,NA,NA,NA,NA,NA,NA,NA,NA,NA,NA,NA,NA,NA,NA,NA,NA,NA,NA,NA,NA,NA,NA,NA,NA,NA,NA,NA,NA,NA,NA,NA,NA,NA,NA,NA,NA,NA,NA,NA,NA
"2016_CT6_R01_BJovanovski_SRB_vs_ACornet_FRA_WS163_clip.0007.png",0.130000000000003,0.02,3.66799999999967,NA,NA,NA,NA,NA,NA,NA,NA,NA,NA,NA,NA,NA,NA,NA,NA,NA,NA,NA,NA,NA,NA,NA,NA,NA,NA,NA,NA,NA,NA,NA,NA,NA,NA,NA,NA,NA,NA,NA,NA,NA,NA,NA,NA,NA,NA,NA,NA,NA,NA,NA,NA,NA,NA,NA,NA,NA,NA
"2016_CT6_R01_BJovanovski_SRB_vs_ACornet_FRA_WS163_clip.0008.png",0.159999999999997,0.01,3.84999999999945,NA,NA,NA,NA,NA,NA,NA,NA,NA,NA,NA,NA,NA,NA,NA,NA,NA,NA,NA,NA,NA,NA,NA,NA,NA,NA,NA,NA,NA,NA,NA,NA,NA,NA,NA,NA,NA,NA,NA,NA,NA,NA,NA,NA,NA,NA,NA,NA,NA,NA,NA,NA,NA,NA,NA,NA,NA,NA
"2016_CT6_R01_BJovanovski_SRB_vs_ACornet_FRA_WS163_clip.0009.png",0.130000000000003,0.02,3.42699999999968,NA,NA,NA,NA,NA,NA,NA,NA,NA,NA,NA,NA,NA,NA,NA,NA,NA,NA,NA,NA,NA,NA,NA,NA,NA,NA,NA,NA,NA,NA,NA,NA,NA,NA,NA,NA,NA,NA,NA,NA,NA,NA,NA,NA,NA,NA,NA,NA,NA,NA,NA,NA,NA,NA,NA,NA,NA,NA
"2016_CT6_R01_BJovanovski_SRB_vs_ACornet_FRA_WS163_clip.0010.png",0.140000000000001,0.01,3.54399999999987,NA,NA,NA,NA,NA,NA,NA,NA,NA,NA,NA,NA,NA,NA,NA,NA,NA,NA,NA,NA,NA,NA,NA,NA,NA,NA,NA,NA,NA,NA,NA,NA,NA,NA,NA,NA,NA,NA,NA,NA,NA,NA,NA,NA,NA,NA,NA,NA,NA,NA,NA,NA,NA,NA,NA,NA,NA,NA
"2016_CT6_R01_BJovanovski_SRB_vs_ACornet_FRA_WS163_clip.0011.png",0.149999999999999,0,3.42299999999977,NA,NA,NA,NA,NA,NA,NA,NA,NA,NA,NA,NA,NA,NA,NA,NA,NA,NA,NA,NA,NA,NA,NA,NA,NA,NA,NA,NA,NA,NA,NA,NA,NA,NA,NA,NA,NA,NA,NA,NA,NA,NA,NA,NA,NA,NA,NA,NA,NA,NA,NA,NA,NA,NA,NA,NA,NA,NA
"2016_CT6_R01_BJovanovski_SRB_vs_ACornet_FRA_WS163_clip.0012.png",0.129999999999995,0.0199999999999998,3.48300000000017,NA,NA,NA,NA,NA,NA,NA,NA,NA,NA,NA,NA,NA,NA,NA,NA,NA,NA,NA,NA,NA,NA,NA,NA,NA,NA,NA,NA,NA,NA,NA,NA,NA,NA,NA,NA,NA,NA,NA,NA,NA,NA,NA,NA,NA,NA,NA,NA,NA,NA,NA,NA,NA,NA,NA,NA,NA,NA
"2016_CT6_R01_BJovanovski_SRB_vs_ACornet_FRA_WS163_clip.0013.png",0.170000000000002,0,3.57600000000002,NA,NA,NA,NA,NA,NA,NA,NA,NA,NA,NA,NA,NA,NA,NA,NA,NA,NA,NA,NA,NA,NA,NA,NA,NA,NA,NA,NA,NA,NA,NA,NA,NA,NA,NA,NA,NA,NA,NA,NA,NA,NA,NA,NA,NA,NA,NA,NA,NA,NA,NA,NA,NA,NA,NA,NA,NA,NA
"2016_CT6_R01_BJovanovski_SRB_vs_ACornet_FRA_WS163_clip.0014.png",0.149999999999999,0.02,3.48300000000017,NA,NA,NA,NA,NA,NA,NA,NA,NA,NA,NA,NA,NA,NA,NA,NA,NA,NA,NA,NA,NA,NA,NA,NA,NA,NA,NA,NA,NA,NA,NA,NA,NA,NA,NA,NA,NA,NA,NA,NA,NA,NA,NA,NA,NA,NA,NA,NA,NA,NA,NA,NA,NA,NA,NA,NA,NA,NA
"2016_CT6_R01_BJovanovski_SRB_vs_ACornet_FRA_WS163_clip.0015.png",0.140000000000001,0.02,3.53600000000006,NA,NA,NA,NA,NA,NA,NA,NA,NA,NA,NA,NA,NA,NA,NA,NA,NA,NA,NA,NA,NA,NA,NA,NA,NA,NA,NA,NA,NA,NA,NA,NA,NA,NA,NA,NA,NA,NA,NA,NA,NA,NA,NA,NA,NA,NA,NA,NA,NA,NA,NA,NA,NA,NA,NA,NA,NA,NA
"2016_CT6_R01_BJovanovski_SRB_vs_ACornet_FRA_WS163_clip.0016.png",0.140000000000001,0.00999999999999979,3.65200000000004,NA,NA,NA,NA,NA,NA,NA,NA,NA,NA,NA,NA,NA,NA,NA,NA,NA,NA,NA,NA,NA,NA,NA,NA,NA,NA,NA,NA,NA,NA,NA,NA,NA,NA,NA,NA,NA,NA,NA,NA,NA,NA,NA,NA,NA,NA,NA,NA,NA,NA,NA,NA,NA,NA,NA,NA,NA,NA
"2016_CT6_R01_BJovanovski_SRB_vs_ACornet_FRA_WS163_clip.0017.png",0.18,0,3.33299999999963,NA,NA,NA,NA,NA,NA,NA,NA,NA,NA,NA,NA,NA,NA,NA,NA,NA,NA,NA,NA,NA,NA,NA,NA,NA,NA,NA,NA,NA,NA,NA,NA,NA,NA,NA,NA,NA,NA,NA,NA,NA,NA,NA,NA,NA,NA,NA,NA,NA,NA,NA,NA,NA,NA,NA,NA,NA,NA
"2016_CT6_R01_BJovanovski_SRB_vs_ACornet_FRA_WS163_clip.0018.png",0.149999999999999,0,3.47400000000016,NA,NA,NA,NA,NA,NA,NA,NA,NA,NA,NA,NA,NA,NA,NA,NA,NA,NA,NA,NA,NA,NA,NA,NA,NA,NA,NA,NA,NA,NA,NA,NA,NA,NA,NA,NA,NA,NA,NA,NA,NA,NA,NA,NA,NA,NA,NA,NA,NA,NA,NA,NA,NA,NA,NA,NA,NA,NA
"2016_CT6_R01_BJovanovski_SRB_vs_ACornet_FRA_WS163_clip.0019.png",0.159999999999997,0,4.71999999999935,26,170,69,69,50.47996875,195.11409375,70.11909375,195.11409375,-1,-1,-1,-1,-1,-1,45.263326171875,195.42095507812,54.469166015625,196.3415390625,65.82303515625,195.72781640625,75.028875,195.42095507812,-1,-1,-1,-1,-1,-1,-1,-1,-1,-1,-1,-1,-1,-1,-1,-1,-1,-1,-1,-1,-1,-1,-1,-1,-1,-1,-1,-1,-1,-1,-3.0264897172821,82.203575086578,2.4782014076871,0.43906,"F","60%"
"2016_CT6_R01_BJovanovski_SRB_vs_ACornet_FRA_WS163_clip.0020.png",0.149999999999999,0,3.6869999999999,NA,NA,NA,NA,NA,NA,NA,NA,NA,NA,NA,NA,NA,NA,NA,NA,NA,NA,NA,NA,NA,NA,NA,NA,NA,NA,NA,NA,NA,NA,NA,NA,NA,NA,NA,NA,NA,NA,NA,NA,NA,NA,NA,NA,NA,NA,NA,NA,NA,NA,NA,NA,NA,NA,NA,NA,NA,NA
"2016_CT6_R01_BJovanovski_SRB_vs_ACornet_FRA_WS163_clip.0021.png",0.149999999999999,0,3.57999999999993,NA,NA,NA,NA,NA,NA,NA,NA,NA,NA,NA,NA,NA,NA,NA,NA,NA,NA,NA,NA,NA,NA,NA,NA,NA,NA,NA,NA,NA,NA,NA,NA,NA,NA,NA,NA,NA,NA,NA,NA,NA,NA,NA,NA,NA,NA,NA,NA,NA,NA,NA,NA,NA,NA,NA,NA,NA,NA
"2016_CT6_R01_BJovanovski_SRB_vs_ACornet_FRA_WS163_clip.0022.png",0.150000000000006,0,3.66699999999946,NA,NA,NA,NA,NA,NA,NA,NA,NA,NA,NA,NA,NA,NA,NA,NA,NA,NA,NA,NA,NA,NA,NA,NA,NA,NA,NA,NA,NA,NA,NA,NA,NA,NA,NA,NA,NA,NA,NA,NA,NA,NA,NA,NA,NA,NA,NA,NA,NA,NA,NA,NA,NA,NA,NA,NA,NA,NA
"2016_CT6_R01_BJovanovski_SRB_vs_ACornet_FRA_WS163_clip.0023.png",0.160000000000004,0,3.83299999999963,NA,NA,NA,NA,NA,NA,NA,NA,NA,NA,NA,NA,NA,NA,NA,NA,NA,NA,NA,NA,NA,NA,NA,NA,NA,NA,NA,NA,NA,NA,NA,NA,NA,NA,NA,NA,NA,NA,NA,NA,NA,NA,NA,NA,NA,NA,NA,NA,NA,NA,NA,NA,NA,NA,NA,NA,NA,NA
"2016_CT6_R01_BJovanovski_SRB_vs_ACornet_FRA_WS163_clip.0024.png",0.199999999999996,0.01,3.91999999999916,NA,NA,NA,NA,NA,NA,NA,NA,NA,NA,NA,NA,NA,NA,NA,NA,NA,NA,NA,NA,NA,NA,NA,NA,NA,NA,NA,NA,NA,NA,NA,NA,NA,NA,NA,NA,NA,NA,NA,NA,NA,NA,NA,NA,NA,NA,NA,NA,NA,NA,NA,NA,NA,NA,NA,NA,NA,NA
"2016_CT6_R01_BJovanovski_SRB_vs_ACornet_FRA_WS163_clip.0025.png",0.150000000000006,0,3.52900000000045,NA,NA,NA,NA,NA,NA,NA,NA,NA,NA,NA,NA,NA,NA,NA,NA,NA,NA,NA,NA,NA,NA,NA,NA,NA,NA,NA,NA,NA,NA,NA,NA,NA,NA,NA,NA,NA,NA,NA,NA,NA,NA,NA,NA,NA,NA,NA,NA,NA,NA,NA,NA,NA,NA,NA,NA,NA,NA
"2016_CT6_R01_BJovanovski_SRB_vs_ACornet_FRA_WS163_clip.0026.png",0.130000000000003,0.02,3.60399999999936,NA,NA,NA,NA,NA,NA,NA,NA,NA,NA,NA,NA,NA,NA,NA,NA,NA,NA,NA,NA,NA,NA,NA,NA,NA,NA,NA,NA,NA,NA,NA,NA,NA,NA,NA,NA,NA,NA,NA,NA,NA,NA,NA,NA,NA,NA,NA,NA,NA,NA,NA,NA,NA,NA,NA,NA,NA,NA
"2016_CT6_R01_CGarcia_FRA_vs_BStrycova_CZE_WS145_clip.0001.png",0.150000000000006,0.01,3.72199999999975,NA,NA,NA,NA,NA,NA,NA,NA,NA,NA,NA,NA,NA,NA,NA,NA,NA,NA,NA,NA,NA,NA,NA,NA,NA,NA,NA,NA,NA,NA,NA,NA,NA,NA,NA,NA,NA,NA,NA,NA,NA,NA,NA,NA,NA,NA,NA,NA,NA,NA,NA,NA,NA,NA,NA,NA,NA,NA
"2016_CT6_R01_CGarcia_FRA_vs_BStrycova_CZE_WS145_clip.0002.png",0.160000000000004,0,3.90000000000055,NA,NA,NA,NA,NA,NA,NA,NA,NA,NA,NA,NA,NA,NA,NA,NA,NA,NA,NA,NA,NA,NA,NA,NA,NA,NA,NA,NA,NA,NA,NA,NA,NA,NA,NA,NA,NA,NA,NA,NA,NA,NA,NA,NA,NA,NA,NA,NA,NA,NA,NA,NA,NA,NA,NA,NA,NA,NA
"2016_CT6_R01_CGarcia_FRA_vs_BStrycova_CZE_WS145_clip.0003.png",0.159999999999997,0,3.67999999999938,NA,NA,NA,NA,NA,NA,NA,NA,NA,NA,NA,NA,NA,NA,NA,NA,NA,NA,NA,NA,NA,NA,NA,NA,NA,NA,NA,NA,NA,NA,NA,NA,NA,NA,NA,NA,NA,NA,NA,NA,NA,NA,NA,NA,NA,NA,NA,NA,NA,NA,NA,NA,NA,NA,NA,NA,NA,NA
"2016_CT6_R01_CGarcia_FRA_vs_BStrycova_CZE_WS145_clip.0004.png",0.140000000000001,0,3.78999999999996,NA,NA,NA,NA,NA,NA,NA,NA,NA,NA,NA,NA,NA,NA,NA,NA,NA,NA,NA,NA,NA,NA,NA,NA,NA,NA,NA,NA,NA,NA,NA,NA,NA,NA,NA,NA,NA,NA,NA,NA,NA,NA,NA,NA,NA,NA,NA,NA,NA,NA,NA,NA,NA,NA,NA,NA,NA,NA
"2016_CT6_R01_CGarcia_FRA_vs_BStrycova_CZE_WS145_clip.0005.png",0.140000000000001,0.00999999999999979,3.64899999999943,NA,NA,NA,NA,NA,NA,NA,NA,NA,NA,NA,NA,NA,NA,NA,NA,NA,NA,NA,NA,NA,NA,NA,NA,NA,NA,NA,NA,NA,NA,NA,NA,NA,NA,NA,NA,NA,NA,NA,NA,NA,NA,NA,NA,NA,NA,NA,NA,NA,NA,NA,NA,NA,NA,NA,NA,NA,NA
"2016_CT6_R01_CGarcia_FRA_vs_BStrycova_CZE_WS145_clip.0006.png",0.149999999999991,0,3.58699999999953,NA,NA,NA,NA,NA,NA,NA,NA,NA,NA,NA,NA,NA,NA,NA,NA,NA,NA,NA,NA,NA,NA,NA,NA,NA,NA,NA,NA,NA,NA,NA,NA,NA,NA,NA,NA,NA,NA,NA,NA,NA,NA,NA,NA,NA,NA,NA,NA,NA,NA,NA,NA,NA,NA,NA,NA,NA,NA
"2016_CT6_R01_CGarcia_FRA_vs_BStrycova_CZE_WS145_clip.0007.png",0.150000000000006,0,3.52300000000014,NA,NA,NA,NA,NA,NA,NA,NA,NA,NA,NA,NA,NA,NA,NA,NA,NA,NA,NA,NA,NA,NA,NA,NA,NA,NA,NA,NA,NA,NA,NA,NA,NA,NA,NA,NA,NA,NA,NA,NA,NA,NA,NA,NA,NA,NA,NA,NA,NA,NA,NA,NA,NA,NA,NA,NA,NA,NA
"2016_CT6_R01_CGarcia_FRA_vs_BStrycova_CZE_WS145_clip.0008.png",0.150000000000006,0,3.42100000000028,NA,NA,NA,NA,NA,NA,NA,NA,NA,NA,NA,NA,NA,NA,NA,NA,NA,NA,NA,NA,NA,NA,NA,NA,NA,NA,NA,NA,NA,NA,NA,NA,NA,NA,NA,NA,NA,NA,NA,NA,NA,NA,NA,NA,NA,NA,NA,NA,NA,NA,NA,NA,NA,NA,NA,NA,NA,NA
"2016_CT6_R01_CGarcia_FRA_vs_BStrycova_CZE_WS145_clip.0009.png",0.129999999999995,0.0299999999999998,3.78099999999995,NA,NA,NA,NA,NA,NA,NA,NA,NA,NA,NA,NA,NA,NA,NA,NA,NA,NA,NA,NA,NA,NA,NA,NA,NA,NA,NA,NA,NA,NA,NA,NA,NA,NA,NA,NA,NA,NA,NA,NA,NA,NA,NA,NA,NA,NA,NA,NA,NA,NA,NA,NA,NA,NA,NA,NA,NA,NA
"2016_CT6_R01_CGarcia_FRA_vs_BStrycova_CZE_WS145_clip.0010.png",0.150000000000006,0.0100000000000002,3.70899999999983,NA,NA,NA,NA,NA,NA,NA,NA,NA,NA,NA,NA,NA,NA,NA,NA,NA,NA,NA,NA,NA,NA,NA,NA,NA,NA,NA,NA,NA,NA,NA,NA,NA,NA,NA,NA,NA,NA,NA,NA,NA,NA,NA,NA,NA,NA,NA,NA,NA,NA,NA,NA,NA,NA,NA,NA,NA,NA
"2016_CT6_R01_CGarcia_FRA_vs_BStrycova_CZE_WS145_clip.0011.png",0.13000000000001,0.0299999999999998,3.7510000000002,NA,NA,NA,NA,NA,NA,NA,NA,NA,NA,NA,NA,NA,NA,NA,NA,NA,NA,NA,NA,NA,NA,NA,NA,NA,NA,NA,NA,NA,NA,NA,NA,NA,NA,NA,NA,NA,NA,NA,NA,NA,NA,NA,NA,NA,NA,NA,NA,NA,NA,NA,NA,NA,NA,NA,NA,NA,NA
"2016_CT6_R01_CGarcia_FRA_vs_BStrycova_CZE_WS145_clip.0012.png",0.140000000000001,0.01,3.78600000000006,NA,NA,NA,NA,NA,NA,NA,NA,NA,NA,NA,NA,NA,NA,NA,NA,NA,NA,NA,NA,NA,NA,NA,NA,NA,NA,NA,NA,NA,NA,NA,NA,NA,NA,NA,NA,NA,NA,NA,NA,NA,NA,NA,NA,NA,NA,NA,NA,NA,NA,NA,NA,NA,NA,NA,NA,NA,NA
"2016_CT6_R01_CGarcia_FRA_vs_BStrycova_CZE_WS145_clip.0013.png",0.179999999999993,0.03,3.95600000000013,NA,NA,NA,NA,NA,NA,NA,NA,NA,NA,NA,NA,NA,NA,NA,NA,NA,NA,NA,NA,NA,NA,NA,NA,NA,NA,NA,NA,NA,NA,NA,NA,NA,NA,NA,NA,NA,NA,NA,NA,NA,NA,NA,NA,NA,NA,NA,NA,NA,NA,NA,NA,NA,NA,NA,NA,NA,NA
"2016_CT6_R01_CGarcia_FRA_vs_BStrycova_CZE_WS145_clip.0014.png",0.159999999999997,0,3.51199999999972,NA,NA,NA,NA,NA,NA,NA,NA,NA,NA,NA,NA,NA,NA,NA,NA,NA,NA,NA,NA,NA,NA,NA,NA,NA,NA,NA,NA,NA,NA,NA,NA,NA,NA,NA,NA,NA,NA,NA,NA,NA,NA,NA,NA,NA,NA,NA,NA,NA,NA,NA,NA,NA,NA,NA,NA,NA,NA
"2016_CT6_R01_CGarcia_FRA_vs_BStrycova_CZE_WS145_clip.0015.png",0.159999999999997,0.00999999999999979,4.75699999999961,283,21,233,233,399.57559770826,262.90562109172,450.69487646158,256.90116943146,-1,-1,-1,-1,-1,-1,386.70195846273,263.60799527627,409.95920120502,261.68596684823,440.31127296481,258.12082367495,459.81064344186,251.78164109256,-1,-1,-1,-1,-1,-1,-1,-1,-1,-1,-1,-1,-1,-1,-1,-1,-1,-1,-1,-1,-1,-1,-1,-1,-1,-1,-1,-1,-1,-1,-4.2897124839837,-59.604316136381,-7.2784439566097,0.51026,"F","70%"
"2016_CT6_R01_CGarcia_FRA_vs_BStrycova_CZE_WS145_clip.0016.png",0.159999999999997,0,3.63000000000011,NA,NA,NA,NA,NA,NA,NA,NA,NA,NA,NA,NA,NA,NA,NA,NA,NA,NA,NA,NA,NA,NA,NA,NA,NA,NA,NA,NA,NA,NA,NA,NA,NA,NA,NA,NA,NA,NA,NA,NA,NA,NA,NA,NA,NA,NA,NA,NA,NA,NA,NA,NA,NA,NA,NA,NA,NA,NA
"2016_CT6_R01_CGarcia_FRA_vs_BStrycova_CZE_WS145_clip.0017.png",0.150000000000006,0.0100000000000002,3.82300000000032,NA,NA,NA,NA,NA,NA,NA,NA,NA,NA,NA,NA,NA,NA,NA,NA,NA,NA,NA,NA,NA,NA,NA,NA,NA,NA,NA,NA,NA,NA,NA,NA,NA,NA,NA,NA,NA,NA,NA,NA,NA,NA,NA,NA,NA,NA,NA,NA,NA,NA,NA,NA,NA,NA,NA,NA,NA,NA
"2016_CT6_R01_CGarcia_FRA_vs_BStrycova_CZE_WS145_clip.0018.png",0.140000000000001,0.0100000000000002,3.46100000000024,NA,NA,NA,NA,NA,NA,NA,NA,NA,NA,NA,NA,NA,NA,NA,NA,NA,NA,NA,NA,NA,NA,NA,NA,NA,NA,NA,NA,NA,NA,NA,NA,NA,NA,NA,NA,NA,NA,NA,NA,NA,NA,NA,NA,NA,NA,NA,NA,NA,NA,NA,NA,NA,NA,NA,NA,NA,NA
"2016_CT6_R01_CGarcia_FRA_vs_BStrycova_CZE_WS145_clip.0019.png",0.140000000000001,0.0100000000000002,3.71199999999953,NA,NA,NA,NA,NA,NA,NA,NA,NA,NA,NA,NA,NA,NA,NA,NA,NA,NA,NA,NA,NA,NA,NA,NA,NA,NA,NA,NA,NA,NA,NA,NA,NA,NA,NA,NA,NA,NA,NA,NA,NA,NA,NA,NA,NA,NA,NA,NA,NA,NA,NA,NA,NA,NA,NA,NA,NA,NA
"2016_CT6_R01_CGarcia_FRA_vs_BStrycova_CZE_WS145_clip.0020.png",0.140000000000001,0.00999999999999979,3.67900000000009,NA,NA,NA,NA,NA,NA,NA,NA,NA,NA,NA,NA,NA,NA,NA,NA,NA,NA,NA,NA,NA,NA,NA,NA,NA,NA,NA,NA,NA,NA,NA,NA,NA,NA,NA,NA,NA,NA,NA,NA,NA,NA,NA,NA,NA,NA,NA,NA,NA,NA,NA,NA,NA,NA,NA,NA,NA,NA
"2016_CT6_R01_CGarcia_FRA_vs_BStrycova_CZE_WS145_clip.0021.png",0.129999999999995,0.02,3.71100000000024,NA,NA,NA,NA,NA,NA,NA,NA,NA,NA,NA,NA,NA,NA,NA,NA,NA,NA,NA,NA,NA,NA,NA,NA,NA,NA,NA,NA,NA,NA,NA,NA,NA,NA,NA,NA,NA,NA,NA,NA,NA,NA,NA,NA,NA,NA,NA,NA,NA,NA,NA,NA,NA,NA,NA,NA,NA,NA
"2016_CT6_R01_CGarcia_FRA_vs_BStrycova_CZE_WS145_clip.0022.png",0.140000000000001,0.0299999999999998,3.62299999999959,NA,NA,NA,NA,NA,NA,NA,NA,NA,NA,NA,NA,NA,NA,NA,NA,NA,NA,NA,NA,NA,NA,NA,NA,NA,NA,NA,NA,NA,NA,NA,NA,NA,NA,NA,NA,NA,NA,NA,NA,NA,NA,NA,NA,NA,NA,NA,NA,NA,NA,NA,NA,NA,NA,NA,NA,NA,NA
"2016_CT6_R01_CGarcia_FRA_vs_BStrycova_CZE_WS145_clip.0023.png",0.140000000000001,0.00999999999999979,3.5010000000002,NA,NA,NA,NA,NA,NA,NA,NA,NA,NA,NA,NA,NA,NA,NA,NA,NA,NA,NA,NA,NA,NA,NA,NA,NA,NA,NA,NA,NA,NA,NA,NA,NA,NA,NA,NA,NA,NA,NA,NA,NA,NA,NA,NA,NA,NA,NA,NA,NA,NA,NA,NA,NA,NA,NA,NA,NA,NA
"2016_CT6_R01_CGarcia_FRA_vs_BStrycova_CZE_WS145_clip.0024.png",0.140000000000001,0.0100000000000002,3.6840000000002,NA,NA,NA,NA,NA,NA,NA,NA,NA,NA,NA,NA,NA,NA,NA,NA,NA,NA,NA,NA,NA,NA,NA,NA,NA,NA,NA,NA,NA,NA,NA,NA,NA,NA,NA,NA,NA,NA,NA,NA,NA,NA,NA,NA,NA,NA,NA,NA,NA,NA,NA,NA,NA,NA,NA,NA,NA,NA
"2016_CT6_R01_CGarcia_FRA_vs_BStrycova_CZE_WS145_clip.0025.png",0.159999999999997,0,3.54500000000007,NA,NA,NA,NA,NA,NA,NA,NA,NA,NA,NA,NA,NA,NA,NA,NA,NA,NA,NA,NA,NA,NA,NA,NA,NA,NA,NA,NA,NA,NA,NA,NA,NA,NA,NA,NA,NA,NA,NA,NA,NA,NA,NA,NA,NA,NA,NA,NA,NA,NA,NA,NA,NA,NA,NA,NA,NA,NA
"2016_CT6_R01_CGarcia_FRA_vs_BStrycova_CZE_WS145_clip.0026.png",0.150000000000006,0,3.73599999999988,NA,NA,NA,NA,NA,NA,NA,NA,NA,NA,NA,NA,NA,NA,NA,NA,NA,NA,NA,NA,NA,NA,NA,NA,NA,NA,NA,NA,NA,NA,NA,NA,NA,NA,NA,NA,NA,NA,NA,NA,NA,NA,NA,NA,NA,NA,NA,NA,NA,NA,NA,NA,NA,NA,NA,NA,NA,NA
"2016_CT6_R01_CGarcia_FRA_vs_BStrycova_CZE_WS145_clip.0027.png",0.150000000000006,0,3.80799999999999,NA,NA,NA,NA,NA,NA,NA,NA,NA,NA,NA,NA,NA,NA,NA,NA,NA,NA,NA,NA,NA,NA,NA,NA,NA,NA,NA,NA,NA,NA,NA,NA,NA,NA,NA,NA,NA,NA,NA,NA,NA,NA,NA,NA,NA,NA,NA,NA,NA,NA,NA,NA,NA,NA,NA,NA,NA,NA
"2016_CT6_R01_CGarcia_FRA_vs_BStrycova_CZE_WS145_clip.0028.png",0.11999999999999,0.0299999999999998,3.76299999999992,NA,NA,NA,NA,NA,NA,NA,NA,NA,NA,NA,NA,NA,NA,NA,NA,NA,NA,NA,NA,NA,NA,NA,NA,NA,NA,NA,NA,NA,NA,NA,NA,NA,NA,NA,NA,NA,NA,NA,NA,NA,NA,NA,NA,NA,NA,NA,NA,NA,NA,NA,NA,NA,NA,NA,NA,NA,NA
"2016_CT6_R01_CGarcia_FRA_vs_BStrycova_CZE_WS145_clip.0029.png",0.159999999999997,0,3.81999999999971,NA,NA,NA,NA,NA,NA,NA,NA,NA,NA,NA,NA,NA,NA,NA,NA,NA,NA,NA,NA,NA,NA,NA,NA,NA,NA,NA,NA,NA,NA,NA,NA,NA,NA,NA,NA,NA,NA,NA,NA,NA,NA,NA,NA,NA,NA,NA,NA,NA,NA,NA,NA,NA,NA,NA,NA,NA,NA
"2016_CT6_R01_CGarcia_FRA_vs_BStrycova_CZE_WS145_clip.0030.png",0.150000000000006,0,3.69700000000012,NA,NA,NA,NA,NA,NA,NA,NA,NA,NA,NA,NA,NA,NA,NA,NA,NA,NA,NA,NA,NA,NA,NA,NA,NA,NA,NA,NA,NA,NA,NA,NA,NA,NA,NA,NA,NA,NA,NA,NA,NA,NA,NA,NA,NA,NA,NA,NA,NA,NA,NA,NA,NA,NA,NA,NA,NA,NA
"2016_CT6_R01_CGarcia_FRA_vs_BStrycova_CZE_WS145_clip.0031.png",0.140000000000001,0.02,3.61199999999917,NA,NA,NA,NA,NA,NA,NA,NA,NA,NA,NA,NA,NA,NA,NA,NA,NA,NA,NA,NA,NA,NA,NA,NA,NA,NA,NA,NA,NA,NA,NA,NA,NA,NA,NA,NA,NA,NA,NA,NA,NA,NA,NA,NA,NA,NA,NA,NA,NA,NA,NA,NA,NA,NA,NA,NA,NA,NA
"2016_CT6_R01_CGarcia_FRA_vs_BStrycova_CZE_WS145_clip.0032.png",0.149999999999991,0.00999999999999979,3.79500000000007,NA,NA,NA,NA,NA,NA,NA,NA,NA,NA,NA,NA,NA,NA,NA,NA,NA,NA,NA,NA,NA,NA,NA,NA,NA,NA,NA,NA,NA,NA,NA,NA,NA,NA,NA,NA,NA,NA,NA,NA,NA,NA,NA,NA,NA,NA,NA,NA,NA,NA,NA,NA,NA,NA,NA,NA,NA,NA
"2016_CT6_R01_EKulichkova_RUS_vs_APetkovic_GER_WS128_clip.0001.png",0.149999999999991,0,4.65200000000004,405,58,69,69,399.22131209892,92.902410802281,428.19889431751,88.630370274154,-1,-1,-1,-1,-1,-1,393.40199134402,94.222943756722,405.69365947574,92.873451381084,421.9935494737,90.470428584013,434.08496570566,87.762612041878,453.64115702237,104.3093769425,-1,-1,-1,-1,-1,-1,-1,-1,-1,-1,-1,-1,-1,-1,-1,-1,-1,-1,-1,-1,-1,-1,-1,-1,-1,-1,-1,-1,1.6075421518816,7.1100035761793,-7.7418114616637,0.47407,"F","60%"
"2016_CT6_R01_EKulichkova_RUS_vs_APetkovic_GER_WS128_clip.0002.png",0.140000000000001,0.00999999999999979,3.7470000000003,NA,NA,NA,NA,NA,NA,NA,NA,NA,NA,NA,NA,NA,NA,NA,NA,NA,NA,NA,NA,NA,NA,NA,NA,NA,NA,NA,NA,NA,NA,NA,NA,NA,NA,NA,NA,NA,NA,NA,NA,NA,NA,NA,NA,NA,NA,NA,NA,NA,NA,NA,NA,NA,NA,NA,NA,NA,NA
"2016_CT6_R01_EKulichkova_RUS_vs_APetkovic_GER_WS128_clip.0003.png",0.140000000000001,0.02,3.64999999999964,NA,NA,NA,NA,NA,NA,NA,NA,NA,NA,NA,NA,NA,NA,NA,NA,NA,NA,NA,NA,NA,NA,NA,NA,NA,NA,NA,NA,NA,NA,NA,NA,NA,NA,NA,NA,NA,NA,NA,NA,NA,NA,NA,NA,NA,NA,NA,NA,NA,NA,NA,NA,NA,NA,NA,NA,NA,NA
"2016_CT6_R01_EKulichkova_RUS_vs_APetkovic_GER_WS128_clip.0004.png",0.150000000000006,0,3.85800000000017,NA,NA,NA,NA,NA,NA,NA,NA,NA,NA,NA,NA,NA,NA,NA,NA,NA,NA,NA,NA,NA,NA,NA,NA,NA,NA,NA,NA,NA,NA,NA,NA,NA,NA,NA,NA,NA,NA,NA,NA,NA,NA,NA,NA,NA,NA,NA,NA,NA,NA,NA,NA,NA,NA,NA,NA,NA,NA
"2016_CT6_R01_EKulichkova_RUS_vs_APetkovic_GER_WS128_clip.0005.png",0.200000000000003,0,4.20499999999993,NA,NA,NA,NA,NA,NA,NA,NA,NA,NA,NA,NA,NA,NA,NA,NA,NA,NA,NA,NA,NA,NA,NA,NA,NA,NA,NA,NA,NA,NA,NA,NA,NA,NA,NA,NA,NA,NA,NA,NA,NA,NA,NA,NA,NA,NA,NA,NA,NA,NA,NA,NA,NA,NA,NA,NA,NA,NA
"2016_CT6_R01_EKulichkova_RUS_vs_APetkovic_GER_WS128_clip.0006.png",0.150000000000006,0,3.8779999999997,NA,NA,NA,NA,NA,NA,NA,NA,NA,NA,NA,NA,NA,NA,NA,NA,NA,NA,NA,NA,NA,NA,NA,NA,NA,NA,NA,NA,NA,NA,NA,NA,NA,NA,NA,NA,NA,NA,NA,NA,NA,NA,NA,NA,NA,NA,NA,NA,NA,NA,NA,NA,NA,NA,NA,NA,NA,NA
"2016_CT6_R01_EKulichkova_RUS_vs_APetkovic_GER_WS128_clip.0007.png",0.150000000000006,0.00999999999999979,3.77400000000034,NA,NA,NA,NA,NA,NA,NA,NA,NA,NA,NA,NA,NA,NA,NA,NA,NA,NA,NA,NA,NA,NA,NA,NA,NA,NA,NA,NA,NA,NA,NA,NA,NA,NA,NA,NA,NA,NA,NA,NA,NA,NA,NA,NA,NA,NA,NA,NA,NA,NA,NA,NA,NA,NA,NA,NA,NA,NA
"2016_CT6_R01_EKulichkova_RUS_vs_APetkovic_GER_WS128_clip.0008.png",0.149999999999991,0,3.98400000000038,NA,NA,NA,NA,NA,NA,NA,NA,NA,NA,NA,NA,NA,NA,NA,NA,NA,NA,NA,NA,NA,NA,NA,NA,NA,NA,NA,NA,NA,NA,NA,NA,NA,NA,NA,NA,NA,NA,NA,NA,NA,NA,NA,NA,NA,NA,NA,NA,NA,NA,NA,NA,NA,NA,NA,NA,NA,NA
"2016_CT6_R01_EKulichkova_RUS_vs_APetkovic_GER_WS128_clip.0009.png",0.149999999999991,0.0100000000000002,6.71600000000035,52,165,41,41,63.886155555556,173.34415555556,73.881955555556,172.77835555556,-1,-1,-1,-1,-1,-1,62.159286805556,173.28521805556,66.228921180556,173.21154618056,71.860399305556,173.04946805556,76.519408680556,172.31569618056,-1,-1,-1,-1,-1,-1,-1,-1,-1,-1,-1,-1,-1,-1,-1,-1,-1,-1,-1,-1,-1,-1,-1,-1,-1,-1,-1,-1,-1,-1,-0.6145580912029,82.55019889911,3.4099646903739,0.52915,"F","90%"
"2016_CT6_R01_EKulichkova_RUS_vs_APetkovic_GER_WS128_clip.0009.png",0.149999999999991,0.0100000000000002,6.71600000000035,468,87,48,48,480.27394731802,95.430011519398,503.79098336341,98.333817236006,487.00326701336,108.10006390863,489.39251848199,93.124913590733,489.44803407109,133.9801029662,476.50866650728,95.711199252596,485.00547330042,96.387300743793,498.23380607595,98.020691459385,507.09806655729,98.742164914904,530.5113125719,102.49156103623,-1,-1,475.1661957465,90.439397122881,478.73910652831,86.774108488182,484.77591583796,88.023088193068,496.64704798677,88.695867992336,503.85398788384,88.962274165766,511.73090621193,93.986651130384,484.53796779942,111.50034705221,491.74490769649,111.76675322564,482.21403672252,109.12882636346,496.14409445819,111.0655152813,484.38026956446,121.60881863619,489.76202985493,122.07771128139,500.13550690673,123.34302108227,-2.3839819085532,22.840258019541,3.4751129592337,1.05211,"F","60%"
"2016_CT6_R01_EKulichkova_RUS_vs_APetkovic_GER_WS128_clip.0010.png",0.149999999999991,0.00999999999999979,3.9409999999998,NA,NA,NA,NA,NA,NA,NA,NA,NA,NA,NA,NA,NA,NA,NA,NA,NA,NA,NA,NA,NA,NA,NA,NA,NA,NA,NA,NA,NA,NA,NA,NA,NA,NA,NA,NA,NA,NA,NA,NA,NA,NA,NA,NA,NA,NA,NA,NA,NA,NA,NA,NA,NA,NA,NA,NA,NA,NA
"2016_CT6_R01_EKulichkova_RUS_vs_APetkovic_GER_WS128_clip.0011.png",0.150000000000006,0,4.86899999999969,421,53,69,69,446.875,78.5875,465.5625,80.8875,450.28731623714,92.578421931078,453.9798326379,78.102178857342,452.36339487985,115.54548960059,443.6271484375,78.4841796875,450.891015625,79.674609375,462.02265625,80.7482421875,470.4904296875,81.7904296875,492.37228590143,88.98079002995,-1,-1,439.79142441406,71.594746888383,443.60860847857,71.352989914595,449.42328141121,73.211714880927,459.77662015659,73.954340987206,468.97483026953,73.630735297626,476.97888197964,75.713331825151,449.02919453121,95.61016094116,455.28456246686,96.24979397314,446.99972401152,93.822447397528,458.29136794726,94.661018458604,446.88263470042,104.23974943642,452.16771579417,105.0962059101,459.95494406217,106.20851559656,-3.7488035729711,30.737877683541,6.2911879346124,0.51978,"F","70%"
"2016_CT6_R01_EKulichkova_RUS_vs_APetkovic_GER_WS128_clip.0012.png",0.170000000000002,0.0299999999999998,3.68900000000031,NA,NA,NA,NA,NA,NA,NA,NA,NA,NA,NA,NA,NA,NA,NA,NA,NA,NA,NA,NA,NA,NA,NA,NA,NA,NA,NA,NA,NA,NA,NA,NA,NA,NA,NA,NA,NA,NA,NA,NA,NA,NA,NA,NA,NA,NA,NA,NA,NA,NA,NA,NA,NA,NA,NA,NA,NA,NA
"2016_CT6_R01_EKulichkova_RUS_vs_APetkovic_GER_WS128_clip.0013.png",0.159999999999997,0,4.10600000000068,NA,NA,NA,NA,NA,NA,NA,NA,NA,NA,NA,NA,NA,NA,NA,NA,NA,NA,NA,NA,NA,NA,NA,NA,NA,NA,NA,NA,NA,NA,NA,NA,NA,NA,NA,NA,NA,NA,NA,NA,NA,NA,NA,NA,NA,NA,NA,NA,NA,NA,NA,NA,NA,NA,NA,NA,NA,NA
"2016_CT6_R01_EKulichkova_RUS_vs_APetkovic_GER_WS128_clip.0014.png",0.13000000000001,0.00999999999999979,3.96500000000015,NA,NA,NA,NA,NA,NA,NA,NA,NA,NA,NA,NA,NA,NA,NA,NA,NA,NA,NA,NA,NA,NA,NA,NA,NA,NA,NA,NA,NA,NA,NA,NA,NA,NA,NA,NA,NA,NA,NA,NA,NA,NA,NA,NA,NA,NA,NA,NA,NA,NA,NA,NA,NA,NA,NA,NA,NA,NA
"2016_CT6_R01_EKulichkova_RUS_vs_APetkovic_GER_WS128_clip.0015.png",0.180000000000007,0.00999999999999979,3.92199999999957,NA,NA,NA,NA,NA,NA,NA,NA,NA,NA,NA,NA,NA,NA,NA,NA,NA,NA,NA,NA,NA,NA,NA,NA,NA,NA,NA,NA,NA,NA,NA,NA,NA,NA,NA,NA,NA,NA,NA,NA,NA,NA,NA,NA,NA,NA,NA,NA,NA,NA,NA,NA,NA,NA,NA,NA,NA,NA
"2016_CT6_R01_EKulichkova_RUS_vs_APetkovic_GER_WS128_clip.0016.png",0.140000000000001,0.02,3.86700000000019,NA,NA,NA,NA,NA,NA,NA,NA,NA,NA,NA,NA,NA,NA,NA,NA,NA,NA,NA,NA,NA,NA,NA,NA,NA,NA,NA,NA,NA,NA,NA,NA,NA,NA,NA,NA,NA,NA,NA,NA,NA,NA,NA,NA,NA,NA,NA,NA,NA,NA,NA,NA,NA,NA,NA,NA,NA,NA
"2016_CT6_R01_EKulichkova_RUS_vs_APetkovic_GER_WS128_clip.0017.png",0.150000000000006,0.00999999999999979,4.98899999999958,NA,NA,NA,NA,NA,NA,NA,NA,NA,NA,NA,NA,NA,NA,NA,NA,NA,NA,NA,NA,NA,NA,NA,NA,NA,NA,NA,NA,NA,NA,NA,NA,NA,NA,NA,NA,NA,NA,NA,NA,NA,NA,NA,NA,NA,NA,NA,NA,NA,NA,NA,NA,NA,NA,NA,NA,NA,NA
"2016_CT6_R01_EKulichkova_RUS_vs_APetkovic_GER_WS128_clip.0018.png",0.129999999999995,0.0199999999999996,3.81999999999971,NA,NA,NA,NA,NA,NA,NA,NA,NA,NA,NA,NA,NA,NA,NA,NA,NA,NA,NA,NA,NA,NA,NA,NA,NA,NA,NA,NA,NA,NA,NA,NA,NA,NA,NA,NA,NA,NA,NA,NA,NA,NA,NA,NA,NA,NA,NA,NA,NA,NA,NA,NA,NA,NA,NA,NA,NA,NA
"2016_CT6_R01_EKulichkova_RUS_vs_APetkovic_GER_WS128_clip.0019.png",0.169999999999987,0.0300000000000002,3.62899999999991,NA,NA,NA,NA,NA,NA,NA,NA,NA,NA,NA,NA,NA,NA,NA,NA,NA,NA,NA,NA,NA,NA,NA,NA,NA,NA,NA,NA,NA,NA,NA,NA,NA,NA,NA,NA,NA,NA,NA,NA,NA,NA,NA,NA,NA,NA,NA,NA,NA,NA,NA,NA,NA,NA,NA,NA,NA,NA
"2016_CT6_R01_EKulichkova_RUS_vs_APetkovic_GER_WS128_clip.0020.png",0.199999999999989,0.00999999999999979,3.90700000000015,NA,NA,NA,NA,NA,NA,NA,NA,NA,NA,NA,NA,NA,NA,NA,NA,NA,NA,NA,NA,NA,NA,NA,NA,NA,NA,NA,NA,NA,NA,NA,NA,NA,NA,NA,NA,NA,NA,NA,NA,NA,NA,NA,NA,NA,NA,NA,NA,NA,NA,NA,NA,NA,NA,NA,NA,NA,NA
"2016_CT6_R01_EKulichkova_RUS_vs_APetkovic_GER_WS128_clip.0021.png",0.140000000000001,0.0100000000000002,3.74000000000069,NA,NA,NA,NA,NA,NA,NA,NA,NA,NA,NA,NA,NA,NA,NA,NA,NA,NA,NA,NA,NA,NA,NA,NA,NA,NA,NA,NA,NA,NA,NA,NA,NA,NA,NA,NA,NA,NA,NA,NA,NA,NA,NA,NA,NA,NA,NA,NA,NA,NA,NA,NA,NA,NA,NA,NA,NA,NA
"2016_CT6_R01_EKulichkova_RUS_vs_APetkovic_GER_WS128_clip.0022.png",0.159999999999997,0,3.66699999999946,NA,NA,NA,NA,NA,NA,NA,NA,NA,NA,NA,NA,NA,NA,NA,NA,NA,NA,NA,NA,NA,NA,NA,NA,NA,NA,NA,NA,NA,NA,NA,NA,NA,NA,NA,NA,NA,NA,NA,NA,NA,NA,NA,NA,NA,NA,NA,NA,NA,NA,NA,NA,NA,NA,NA,NA,NA,NA
"2016_CT6_R01_EKulichkova_RUS_vs_APetkovic_GER_WS128_clip.0023.png",0.150000000000006,0,3.64500000000044,NA,NA,NA,NA,NA,NA,NA,NA,NA,NA,NA,NA,NA,NA,NA,NA,NA,NA,NA,NA,NA,NA,NA,NA,NA,NA,NA,NA,NA,NA,NA,NA,NA,NA,NA,NA,NA,NA,NA,NA,NA,NA,NA,NA,NA,NA,NA,NA,NA,NA,NA,NA,NA,NA,NA,NA,NA,NA
"2016_CT6_R01_EKulichkova_RUS_vs_APetkovic_GER_WS128_clip.0024.png",0.140000000000001,0.02,3.8720000000003,NA,NA,NA,NA,NA,NA,NA,NA,NA,NA,NA,NA,NA,NA,NA,NA,NA,NA,NA,NA,NA,NA,NA,NA,NA,NA,NA,NA,NA,NA,NA,NA,NA,NA,NA,NA,NA,NA,NA,NA,NA,NA,NA,NA,NA,NA,NA,NA,NA,NA,NA,NA,NA,NA,NA,NA,NA,NA
"2016_CT6_R01_EKulichkova_RUS_vs_APetkovic_GER_WS128_clip.0025.png",0.159999999999997,0.0100000000000002,3.77599999999984,NA,NA,NA,NA,NA,NA,NA,NA,NA,NA,NA,NA,NA,NA,NA,NA,NA,NA,NA,NA,NA,NA,NA,NA,NA,NA,NA,NA,NA,NA,NA,NA,NA,NA,NA,NA,NA,NA,NA,NA,NA,NA,NA,NA,NA,NA,NA,NA,NA,NA,NA,NA,NA,NA,NA,NA,NA,NA
"2016_CT6_R01_EKulichkova_RUS_vs_APetkovic_GER_WS128_clip.0026.png",0.150000000000006,0.00999999999999979,5.2489999999998,591,96,37,37,602.95959375,103.45384375,615.166125,103.6931875,603.45231761817,111.72575139531,606.517997295,102.41835529048,605.87820237851,129.41202726026,600.67086914062,103.40896679688,605.81675976562,103.70066699219,612.10701269531,104.01480566406,617.26412255859,103.73432470703,-1,-1,-1,-1,599.68003017986,100.1194624786,601.58452118666,98.793608762801,604.62475929129,99.371756792797,610.32795783061,99.386434622915,615.08062328005,99.398666148014,619.26003330953,100.55006959797,-1,-1,-1,-1,-1,-1,-1,-1,-1,-1,-1,-1,-1,-1,-0.68253339106405,44.116343481383,3.7865699483593,0.56593,"F","70%"
"2016_CT6_R01_EKulichkova_RUS_vs_APetkovic_GER_WS128_clip.0027.png",0.129999999999995,0.02,3.69999999999982,NA,NA,NA,NA,NA,NA,NA,NA,NA,NA,NA,NA,NA,NA,NA,NA,NA,NA,NA,NA,NA,NA,NA,NA,NA,NA,NA,NA,NA,NA,NA,NA,NA,NA,NA,NA,NA,NA,NA,NA,NA,NA,NA,NA,NA,NA,NA,NA,NA,NA,NA,NA,NA,NA,NA,NA,NA,NA
"2016_CT6_R01_EKulichkova_RUS_vs_APetkovic_GER_WS128_clip.0028.png",0.209999999999994,0,3.72800000000007,NA,NA,NA,NA,NA,NA,NA,NA,NA,NA,NA,NA,NA,NA,NA,NA,NA,NA,NA,NA,NA,NA,NA,NA,NA,NA,NA,NA,NA,NA,NA,NA,NA,NA,NA,NA,NA,NA,NA,NA,NA,NA,NA,NA,NA,NA,NA,NA,NA,NA,NA,NA,NA,NA,NA,NA,NA,NA
"2016_CT6_R01_EKulichkova_RUS_vs_APetkovic_GER_WS128_clip.0029.png",0.159999999999997,0,5.10899999999947,306,50,70,70,334.46948973757,71.068160552845,349.80140429816,71.472601396463,348.52861478137,83.678687466981,344.30398768347,70.521046352433,-1,-1,330.87607226243,70.973369730122,337.57114610632,71.629434929223,346.43490921166,71.86325229194,351.71789361823,71.523156501915,-1,-1,-1,-1,327.58282311714,67.665199228512,335.85830530215,65.814462730012,340.19312213644,69.018772910433,347.71612382329,69.344851270426,352.82760914665,68.187469070228,354.76165983563,68.937262013956,345.30817927425,89.470089316908,349.43785770311,89.273013575033,341.72315538356,84.33172844712,350.71349230306,83.702875457878,-1,-1,-1,-1,-1,-1,1.9042321945088,-44.903293493911,-1.121570544571,0.52572,"F","70%"
"2016_CT6_R01_EKulichkova_RUS_vs_APetkovic_GER_WS128_clip.0030.png",0.140000000000001,0.0100000000000002,3.69400000000041,NA,NA,NA,NA,NA,NA,NA,NA,NA,NA,NA,NA,NA,NA,NA,NA,NA,NA,NA,NA,NA,NA,NA,NA,NA,NA,NA,NA,NA,NA,NA,NA,NA,NA,NA,NA,NA,NA,NA,NA,NA,NA,NA,NA,NA,NA,NA,NA,NA,NA,NA,NA,NA,NA,NA,NA,NA,NA
"2016_CT6_R01_EKulichkova_RUS_vs_APetkovic_GER_WS128_clip.0031.png",0.159999999999997,0,3.49299999999948,NA,NA,NA,NA,NA,NA,NA,NA,NA,NA,NA,NA,NA,NA,NA,NA,NA,NA,NA,NA,NA,NA,NA,NA,NA,NA,NA,NA,NA,NA,NA,NA,NA,NA,NA,NA,NA,NA,NA,NA,NA,NA,NA,NA,NA,NA,NA,NA,NA,NA,NA,NA,NA,NA,NA,NA,NA,NA
"2016_CT6_R01_EKulichkova_RUS_vs_APetkovic_GER_WS128_clip.0032.png",0.149999999999977,0,3.71100000000024,NA,NA,NA,NA,NA,NA,NA,NA,NA,NA,NA,NA,NA,NA,NA,NA,NA,NA,NA,NA,NA,NA,NA,NA,NA,NA,NA,NA,NA,NA,NA,NA,NA,NA,NA,NA,NA,NA,NA,NA,NA,NA,NA,NA,NA,NA,NA,NA,NA,NA,NA,NA,NA,NA,NA,NA,NA,NA
"2016_CT6_R01_EKulichkova_RUS_vs_APetkovic_GER_WS128_clip.0033.png",0.150000000000006,0,3.6909999999998,NA,NA,NA,NA,NA,NA,NA,NA,NA,NA,NA,NA,NA,NA,NA,NA,NA,NA,NA,NA,NA,NA,NA,NA,NA,NA,NA,NA,NA,NA,NA,NA,NA,NA,NA,NA,NA,NA,NA,NA,NA,NA,NA,NA,NA,NA,NA,NA,NA,NA,NA,NA,NA,NA,NA,NA,NA,NA
"2016_CT6_R01_EKulichkova_RUS_vs_APetkovic_GER_WS128_clip.0034.png",0.129999999999995,0.02,3.87599999999929,NA,NA,NA,NA,NA,NA,NA,NA,NA,NA,NA,NA,NA,NA,NA,NA,NA,NA,NA,NA,NA,NA,NA,NA,NA,NA,NA,NA,NA,NA,NA,NA,NA,NA,NA,NA,NA,NA,NA,NA,NA,NA,NA,NA,NA,NA,NA,NA,NA,NA,NA,NA,NA,NA,NA,NA,NA,NA
"2016_CT6_R01_EKulichkova_RUS_vs_APetkovic_GER_WS128_clip.0035.png",0.159999999999997,0,3.86299999999937,NA,NA,NA,NA,NA,NA,NA,NA,NA,NA,NA,NA,NA,NA,NA,NA,NA,NA,NA,NA,NA,NA,NA,NA,NA,NA,NA,NA,NA,NA,NA,NA,NA,NA,NA,NA,NA,NA,NA,NA,NA,NA,NA,NA,NA,NA,NA,NA,NA,NA,NA,NA,NA,NA,NA,NA,NA,NA
"2016_CT6_R01_EKulichkova_RUS_vs_APetkovic_GER_WS128_clip.0036.png",0.169999999999987,0.00999999999999979,3.77199999999993,NA,NA,NA,NA,NA,NA,NA,NA,NA,NA,NA,NA,NA,NA,NA,NA,NA,NA,NA,NA,NA,NA,NA,NA,NA,NA,NA,NA,NA,NA,NA,NA,NA,NA,NA,NA,NA,NA,NA,NA,NA,NA,NA,NA,NA,NA,NA,NA,NA,NA,NA,NA,NA,NA,NA,NA,NA,NA
"2016_CT6_R01_EKulichkova_RUS_vs_APetkovic_GER_WS128_clip.0037.png",0.170000000000016,0.0300000000000002,3.77100000000064,NA,NA,NA,NA,NA,NA,NA,NA,NA,NA,NA,NA,NA,NA,NA,NA,NA,NA,NA,NA,NA,NA,NA,NA,NA,NA,NA,NA,NA,NA,NA,NA,NA,NA,NA,NA,NA,NA,NA,NA,NA,NA,NA,NA,NA,NA,NA,NA,NA,NA,NA,NA,NA,NA,NA,NA,NA,NA
"2016_CT6_R01_EKulichkova_RUS_vs_APetkovic_GER_WS128_clip.0038.png",0.129999999999995,0.02,3.75399999999991,NA,NA,NA,NA,NA,NA,NA,NA,NA,NA,NA,NA,NA,NA,NA,NA,NA,NA,NA,NA,NA,NA,NA,NA,NA,NA,NA,NA,NA,NA,NA,NA,NA,NA,NA,NA,NA,NA,NA,NA,NA,NA,NA,NA,NA,NA,NA,NA,NA,NA,NA,NA,NA,NA,NA,NA,NA,NA
"2016_CT6_R01_EKulichkova_RUS_vs_APetkovic_GER_WS128_clip.0039.png",0.159999999999997,0,4.66899999999987,500,51,56,56,520.06666666667,72.7,535.93333333333,73.4,523.42838870087,82.91663224168,525.99332729889,71.383325125527,525.13025386339,100.72893578081,517.82447916667,72.849479166667,523.25677083333,73.5859375,532.67760416667,74.0015625,539.37135416667,74.296875,555.05577406373,78.313022076564,-1,-1,514.48361717859,68.31283456717,517.34674241924,66.673186150541,521.60853859051,67.632088501324,530.96124984097,68.068632807949,537.07506733392,67.340692763008,543.56465334373,69.416885486262,522.56387430859,85.156220576252,527.61939390343,85.392190471725,521.09441240927,84.074325688102,530.20614617478,84.246295520076,520.6932635866,92.66870900392,525.48420870692,93.145656384496,532.79111512988,93.993364692686,-1.0644462359669,27.43491620003,3.0178243355025,0.5297,"F","80%"
"2016_CT6_R01_EKulichkova_RUS_vs_APetkovic_GER_WS128_clip.0040.png",0.129999999999995,0.02,5.29699999999957,367,42,63,63,390.4264,65.951,408.9736,67.4,395.97474609327,78.735437074474,396.84798645676,65.415295117734,396.29264490377,99.696002021206,387.19331875,66.281553125,394.415678125,67.13736875,405.183559375,67.395471875,413.297959375,68.029409375,429.605566675,73.191399673355,-1,-1,383.63152002044,62.117854500707,387.31965815713,61.061267646007,393.31536159241,62.835581591682,402.70913757212,63.237324211576,410.69146390871,61.150069380878,418.21525194137,62.68615549158,394.05292038876,81.0818806922,400.41644605244,81.35402891858,393.18272361203,80.133927278958,403.19550909432,80.258563745826,393.70301552601,89.263556548893,397.6293814975,89.735054292191,405.52099175856,89.768974683598,-2.3068961700678,20.154161611847,1.6887043324929,0.5338,"F","80%"
"2016_CT6_R01_EKulichkova_RUS_vs_APetkovic_GER_WS128_clip.0041.png",0.139999999999986,0.00999999999999979,3.5630000000001,NA,NA,NA,NA,NA,NA,NA,NA,NA,NA,NA,NA,NA,NA,NA,NA,NA,NA,NA,NA,NA,NA,NA,NA,NA,NA,NA,NA,NA,NA,NA,NA,NA,NA,NA,NA,NA,NA,NA,NA,NA,NA,NA,NA,NA,NA,NA,NA,NA,NA,NA,NA,NA,NA,NA,NA,NA,NA
"2016_CT6_R01_EKulichkova_RUS_vs_APetkovic_GER_WS128_clip.0042.png",0.139999999999986,0.0100000000000002,3.84299999999985,NA,NA,NA,NA,NA,NA,NA,NA,NA,NA,NA,NA,NA,NA,NA,NA,NA,NA,NA,NA,NA,NA,NA,NA,NA,NA,NA,NA,NA,NA,NA,NA,NA,NA,NA,NA,NA,NA,NA,NA,NA,NA,NA,NA,NA,NA,NA,NA,NA,NA,NA,NA,NA,NA,NA,NA,NA,NA
"2016_CT6_R01_EKulichkova_RUS_vs_APetkovic_GER_WS128_clip.0043.png",0.159999999999997,0,3.68599999999969,NA,NA,NA,NA,NA,NA,NA,NA,NA,NA,NA,NA,NA,NA,NA,NA,NA,NA,NA,NA,NA,NA,NA,NA,NA,NA,NA,NA,NA,NA,NA,NA,NA,NA,NA,NA,NA,NA,NA,NA,NA,NA,NA,NA,NA,NA,NA,NA,NA,NA,NA,NA,NA,NA,NA,NA,NA,NA
"2016_CT6_R01_EKulichkova_RUS_vs_APetkovic_GER_WS128_clip.0044.png",0.140000000000015,0.0100000000000002,3.75900000000001,NA,NA,NA,NA,NA,NA,NA,NA,NA,NA,NA,NA,NA,NA,NA,NA,NA,NA,NA,NA,NA,NA,NA,NA,NA,NA,NA,NA,NA,NA,NA,NA,NA,NA,NA,NA,NA,NA,NA,NA,NA,NA,NA,NA,NA,NA,NA,NA,NA,NA,NA,NA,NA,NA,NA,NA,NA,NA
"2016_CT6_R01_EKulichkova_RUS_vs_APetkovic_GER_WS128_clip.0045.png",0.129999999999995,0.02,3.72500000000036,NA,NA,NA,NA,NA,NA,NA,NA,NA,NA,NA,NA,NA,NA,NA,NA,NA,NA,NA,NA,NA,NA,NA,NA,NA,NA,NA,NA,NA,NA,NA,NA,NA,NA,NA,NA,NA,NA,NA,NA,NA,NA,NA,NA,NA,NA,NA,NA,NA,NA,NA,NA,NA,NA,NA,NA,NA,NA
"2016_CT6_R01_EKulichkova_RUS_vs_APetkovic_GER_WS128_clip.0046.png",0.150000000000006,0.0100000000000002,3.60900000000038,NA,NA,NA,NA,NA,NA,NA,NA,NA,NA,NA,NA,NA,NA,NA,NA,NA,NA,NA,NA,NA,NA,NA,NA,NA,NA,NA,NA,NA,NA,NA,NA,NA,NA,NA,NA,NA,NA,NA,NA,NA,NA,NA,NA,NA,NA,NA,NA,NA,NA,NA,NA,NA,NA,NA,NA,NA,NA
"2016_CT6_R01_EKulichkova_RUS_vs_APetkovic_GER_WS128_clip.0047.png",0.139999999999986,0.0100000000000002,3.42000000000007,NA,NA,NA,NA,NA,NA,NA,NA,NA,NA,NA,NA,NA,NA,NA,NA,NA,NA,NA,NA,NA,NA,NA,NA,NA,NA,NA,NA,NA,NA,NA,NA,NA,NA,NA,NA,NA,NA,NA,NA,NA,NA,NA,NA,NA,NA,NA,NA,NA,NA,NA,NA,NA,NA,NA,NA,NA,NA
"2016_CT6_R01_EKulichkova_RUS_vs_APetkovic_GER_WS128_clip.0048.png",0.150000000000006,0.00999999999999979,3.4409999999998,NA,NA,NA,NA,NA,NA,NA,NA,NA,NA,NA,NA,NA,NA,NA,NA,NA,NA,NA,NA,NA,NA,NA,NA,NA,NA,NA,NA,NA,NA,NA,NA,NA,NA,NA,NA,NA,NA,NA,NA,NA,NA,NA,NA,NA,NA,NA,NA,NA,NA,NA,NA,NA,NA,NA,NA,NA,NA
"2016_CT6_R01_EKulichkova_RUS_vs_APetkovic_GER_WS128_clip.0049.png",0.140000000000015,0.0100000000000002,3.58999999999924,NA,NA,NA,NA,NA,NA,NA,NA,NA,NA,NA,NA,NA,NA,NA,NA,NA,NA,NA,NA,NA,NA,NA,NA,NA,NA,NA,NA,NA,NA,NA,NA,NA,NA,NA,NA,NA,NA,NA,NA,NA,NA,NA,NA,NA,NA,NA,NA,NA,NA,NA,NA,NA,NA,NA,NA,NA,NA
"2016_CT6_R01_EKulichkova_RUS_vs_APetkovic_GER_WS128_clip.0050.png",0.129999999999995,0.02,3.51500000000033,NA,NA,NA,NA,NA,NA,NA,NA,NA,NA,NA,NA,NA,NA,NA,NA,NA,NA,NA,NA,NA,NA,NA,NA,NA,NA,NA,NA,NA,NA,NA,NA,NA,NA,NA,NA,NA,NA,NA,NA,NA,NA,NA,NA,NA,NA,NA,NA,NA,NA,NA,NA,NA,NA,NA,NA,NA,NA
"2016_CT6_R01_EKulichkova_RUS_vs_APetkovic_GER_WS128_clip.0051.png",0.139999999999986,0.0100000000000002,3.5600000000004,NA,NA,NA,NA,NA,NA,NA,NA,NA,NA,NA,NA,NA,NA,NA,NA,NA,NA,NA,NA,NA,NA,NA,NA,NA,NA,NA,NA,NA,NA,NA,NA,NA,NA,NA,NA,NA,NA,NA,NA,NA,NA,NA,NA,NA,NA,NA,NA,NA,NA,NA,NA,NA,NA,NA,NA,NA,NA
"2016_CT6_R01_EKulichkova_RUS_vs_APetkovic_GER_WS128_clip.0052.png",0.150000000000006,0.02,3.52700000000004,NA,NA,NA,NA,NA,NA,NA,NA,NA,NA,NA,NA,NA,NA,NA,NA,NA,NA,NA,NA,NA,NA,NA,NA,NA,NA,NA,NA,NA,NA,NA,NA,NA,NA,NA,NA,NA,NA,NA,NA,NA,NA,NA,NA,NA,NA,NA,NA,NA,NA,NA,NA,NA,NA,NA,NA,NA,NA
"2016_CT6_R01_EKulichkova_RUS_vs_APetkovic_GER_WS128_clip.0053.png",0.139999999999986,0.02,3.6909999999998,NA,NA,NA,NA,NA,NA,NA,NA,NA,NA,NA,NA,NA,NA,NA,NA,NA,NA,NA,NA,NA,NA,NA,NA,NA,NA,NA,NA,NA,NA,NA,NA,NA,NA,NA,NA,NA,NA,NA,NA,NA,NA,NA,NA,NA,NA,NA,NA,NA,NA,NA,NA,NA,NA,NA,NA,NA,NA
"2016_CT6_R01_EKulichkova_RUS_vs_APetkovic_GER_WS128_clip.0054.png",0.200000000000017,0,3.93199999999979,NA,NA,NA,NA,NA,NA,NA,NA,NA,NA,NA,NA,NA,NA,NA,NA,NA,NA,NA,NA,NA,NA,NA,NA,NA,NA,NA,NA,NA,NA,NA,NA,NA,NA,NA,NA,NA,NA,NA,NA,NA,NA,NA,NA,NA,NA,NA,NA,NA,NA,NA,NA,NA,NA,NA,NA,NA,NA
"2016_CT6_R01_EKulichkova_RUS_vs_APetkovic_GER_WS128_clip.0055.png",0.169999999999987,0,3.65399999999954,NA,NA,NA,NA,NA,NA,NA,NA,NA,NA,NA,NA,NA,NA,NA,NA,NA,NA,NA,NA,NA,NA,NA,NA,NA,NA,NA,NA,NA,NA,NA,NA,NA,NA,NA,NA,NA,NA,NA,NA,NA,NA,NA,NA,NA,NA,NA,NA,NA,NA,NA,NA,NA,NA,NA,NA,NA,NA
"2016_CT6_R01_EKulichkova_RUS_vs_APetkovic_GER_WS128_clip.0056.png",0.140000000000015,0.0199999999999996,3.7529999999997,NA,NA,NA,NA,NA,NA,NA,NA,NA,NA,NA,NA,NA,NA,NA,NA,NA,NA,NA,NA,NA,NA,NA,NA,NA,NA,NA,NA,NA,NA,NA,NA,NA,NA,NA,NA,NA,NA,NA,NA,NA,NA,NA,NA,NA,NA,NA,NA,NA,NA,NA,NA,NA,NA,NA,NA,NA,NA
"2016_CT6_R01_EKulichkova_RUS_vs_APetkovic_GER_WS128_clip.0057.png",0.159999999999997,0,3.42399999999998,NA,NA,NA,NA,NA,NA,NA,NA,NA,NA,NA,NA,NA,NA,NA,NA,NA,NA,NA,NA,NA,NA,NA,NA,NA,NA,NA,NA,NA,NA,NA,NA,NA,NA,NA,NA,NA,NA,NA,NA,NA,NA,NA,NA,NA,NA,NA,NA,NA,NA,NA,NA,NA,NA,NA,NA,NA,NA
"2016_CT6_R01_EKulichkova_RUS_vs_APetkovic_GER_WS128_clip.0058.png",0.150000000000006,0.00999999999999979,3.64399999999932,NA,NA,NA,NA,NA,NA,NA,NA,NA,NA,NA,NA,NA,NA,NA,NA,NA,NA,NA,NA,NA,NA,NA,NA,NA,NA,NA,NA,NA,NA,NA,NA,NA,NA,NA,NA,NA,NA,NA,NA,NA,NA,NA,NA,NA,NA,NA,NA,NA,NA,NA,NA,NA,NA,NA,NA,NA,NA
"2016_CT6_R01_EKulichkova_RUS_vs_APetkovic_GER_WS128_clip.0059.png",0.140000000000015,0.02,3.85199999999986,NA,NA,NA,NA,NA,NA,NA,NA,NA,NA,NA,NA,NA,NA,NA,NA,NA,NA,NA,NA,NA,NA,NA,NA,NA,NA,NA,NA,NA,NA,NA,NA,NA,NA,NA,NA,NA,NA,NA,NA,NA,NA,NA,NA,NA,NA,NA,NA,NA,NA,NA,NA,NA,NA,NA,NA,NA,NA
"2016_CT6_R01_EKulichkova_RUS_vs_APetkovic_GER_WS128_clip.0060.png",0.150000000000006,0.0100000000000002,3.73599999999988,NA,NA,NA,NA,NA,NA,NA,NA,NA,NA,NA,NA,NA,NA,NA,NA,NA,NA,NA,NA,NA,NA,NA,NA,NA,NA,NA,NA,NA,NA,NA,NA,NA,NA,NA,NA,NA,NA,NA,NA,NA,NA,NA,NA,NA,NA,NA,NA,NA,NA,NA,NA,NA,NA,NA,NA,NA,NA
"2016_CT6_R01_EKulichkova_RUS_vs_APetkovic_GER_WS128_clip.0061.png",0.149999999999977,0,3.71799999999985,NA,NA,NA,NA,NA,NA,NA,NA,NA,NA,NA,NA,NA,NA,NA,NA,NA,NA,NA,NA,NA,NA,NA,NA,NA,NA,NA,NA,NA,NA,NA,NA,NA,NA,NA,NA,NA,NA,NA,NA,NA,NA,NA,NA,NA,NA,NA,NA,NA,NA,NA,NA,NA,NA,NA,NA,NA,NA
"2016_CT6_R01_EKulichkova_RUS_vs_APetkovic_GER_WS128_clip.0062.png",0.149999999999977,0.0100000000000002,3.83600000000024,NA,NA,NA,NA,NA,NA,NA,NA,NA,NA,NA,NA,NA,NA,NA,NA,NA,NA,NA,NA,NA,NA,NA,NA,NA,NA,NA,NA,NA,NA,NA,NA,NA,NA,NA,NA,NA,NA,NA,NA,NA,NA,NA,NA,NA,NA,NA,NA,NA,NA,NA,NA,NA,NA,NA,NA,NA,NA
"2016_CT6_R01_EKulichkova_RUS_vs_APetkovic_GER_WS128_clip.0063.png",0.150000000000006,0.00999999999999979,3.89300000000003,NA,NA,NA,NA,NA,NA,NA,NA,NA,NA,NA,NA,NA,NA,NA,NA,NA,NA,NA,NA,NA,NA,NA,NA,NA,NA,NA,NA,NA,NA,NA,NA,NA,NA,NA,NA,NA,NA,NA,NA,NA,NA,NA,NA,NA,NA,NA,NA,NA,NA,NA,NA,NA,NA,NA,NA,NA,NA
"2016_CT6_R01_EKulichkova_RUS_vs_APetkovic_GER_WS128_clip.0064.png",0.140000000000015,0.02,3.65800000000036,NA,NA,NA,NA,NA,NA,NA,NA,NA,NA,NA,NA,NA,NA,NA,NA,NA,NA,NA,NA,NA,NA,NA,NA,NA,NA,NA,NA,NA,NA,NA,NA,NA,NA,NA,NA,NA,NA,NA,NA,NA,NA,NA,NA,NA,NA,NA,NA,NA,NA,NA,NA,NA,NA,NA,NA,NA,NA
"2016_CT6_R01_EKulichkova_RUS_vs_APetkovic_GER_WS128_clip.0065.png",0.150000000000006,0.00999999999999979,3.80799999999999,NA,NA,NA,NA,NA,NA,NA,NA,NA,NA,NA,NA,NA,NA,NA,NA,NA,NA,NA,NA,NA,NA,NA,NA,NA,NA,NA,NA,NA,NA,NA,NA,NA,NA,NA,NA,NA,NA,NA,NA,NA,NA,NA,NA,NA,NA,NA,NA,NA,NA,NA,NA,NA,NA,NA,NA,NA,NA
"2016_CT6_R01_EKulichkova_RUS_vs_APetkovic_GER_WS128_clip.0066.png",0.140000000000015,0,3.81800000000021,NA,NA,NA,NA,NA,NA,NA,NA,NA,NA,NA,NA,NA,NA,NA,NA,NA,NA,NA,NA,NA,NA,NA,NA,NA,NA,NA,NA,NA,NA,NA,NA,NA,NA,NA,NA,NA,NA,NA,NA,NA,NA,NA,NA,NA,NA,NA,NA,NA,NA,NA,NA,NA,NA,NA,NA,NA,NA
"2016_CT6_R01_EKulichkova_RUS_vs_APetkovic_GER_WS128_clip.0067.png",0.150000000000006,0.00999999999999979,3.52400000000034,NA,NA,NA,NA,NA,NA,NA,NA,NA,NA,NA,NA,NA,NA,NA,NA,NA,NA,NA,NA,NA,NA,NA,NA,NA,NA,NA,NA,NA,NA,NA,NA,NA,NA,NA,NA,NA,NA,NA,NA,NA,NA,NA,NA,NA,NA,NA,NA,NA,NA,NA,NA,NA,NA,NA,NA,NA,NA
"2016_CT6_R01_EKulichkova_RUS_vs_APetkovic_GER_WS128_clip.0068.png",0.129999999999995,0.02,5.45499999999993,339,92,41,41,355.70866666667,106.15613333333,367.40186666667,106.53333333333,362.74250093368,109.26846614316,363.64023927169,105.1874385383,-1,-1,352.77357916667,106.42724583333,358.07795416667,106.41545833333,365.02668541667,106.45671458333,369.41163541667,106.59816458333,-1,-1,-1,-1,351.62401611518,104.42630524313,356.43589534563,102.79467864595,360.31005427432,102.92158339461,366.1229585825,103.20871119505,369.60003931041,102.76165553957,371.55877567179,104.08312672087,361.82143978347,111.99470426358,363.76351699328,112.34846867029,-1,-1,363.94039919663,111.37743006538,-1,-1,-1,-1,-1,-1,6.7677506816178,-14.57424634551,2.0446175973732,0.62059,"F","60%"
"2016_CT6_R01_EKulichkova_RUS_vs_APetkovic_GER_WS128_clip.0069.png",0.140000000000015,0.0100000000000002,3.73999999999978,NA,NA,NA,NA,NA,NA,NA,NA,NA,NA,NA,NA,NA,NA,NA,NA,NA,NA,NA,NA,NA,NA,NA,NA,NA,NA,NA,NA,NA,NA,NA,NA,NA,NA,NA,NA,NA,NA,NA,NA,NA,NA,NA,NA,NA,NA,NA,NA,NA,NA,NA,NA,NA,NA,NA,NA,NA,NA
"2016_CT6_R01_EKulichkova_RUS_vs_APetkovic_GER_WS128_clip.0070.png",0.129999999999995,0.02,3.67500000000018,NA,NA,NA,NA,NA,NA,NA,NA,NA,NA,NA,NA,NA,NA,NA,NA,NA,NA,NA,NA,NA,NA,NA,NA,NA,NA,NA,NA,NA,NA,NA,NA,NA,NA,NA,NA,NA,NA,NA,NA,NA,NA,NA,NA,NA,NA,NA,NA,NA,NA,NA,NA,NA,NA,NA,NA,NA,NA
"2016_CT6_R01_EKulichkova_RUS_vs_APetkovic_GER_WS128_clip.0071.png",0.150000000000006,0.0100000000000002,3.38500000000022,NA,NA,NA,NA,NA,NA,NA,NA,NA,NA,NA,NA,NA,NA,NA,NA,NA,NA,NA,NA,NA,NA,NA,NA,NA,NA,NA,NA,NA,NA,NA,NA,NA,NA,NA,NA,NA,NA,NA,NA,NA,NA,NA,NA,NA,NA,NA,NA,NA,NA,NA,NA,NA,NA,NA,NA,NA,NA
"2016_CT6_R01_EKulichkova_RUS_vs_APetkovic_GER_WS128_clip.0072.png",0.110000000000014,0.04,3.84400000000005,NA,NA,NA,NA,NA,NA,NA,NA,NA,NA,NA,NA,NA,NA,NA,NA,NA,NA,NA,NA,NA,NA,NA,NA,NA,NA,NA,NA,NA,NA,NA,NA,NA,NA,NA,NA,NA,NA,NA,NA,NA,NA,NA,NA,NA,NA,NA,NA,NA,NA,NA,NA,NA,NA,NA,NA,NA,NA
"2016_CT6_R01_EKulichkova_RUS_vs_APetkovic_GER_WS128_clip.0073.png",0.159999999999997,0,3.58399999999983,NA,NA,NA,NA,NA,NA,NA,NA,NA,NA,NA,NA,NA,NA,NA,NA,NA,NA,NA,NA,NA,NA,NA,NA,NA,NA,NA,NA,NA,NA,NA,NA,NA,NA,NA,NA,NA,NA,NA,NA,NA,NA,NA,NA,NA,NA,NA,NA,NA,NA,NA,NA,NA,NA,NA,NA,NA,NA
"2016_CT6_R01_EKulichkova_RUS_vs_APetkovic_GER_WS128_clip.0074.png",0.139999999999986,0.00999999999999979,3.84400000000005,NA,NA,NA,NA,NA,NA,NA,NA,NA,NA,NA,NA,NA,NA,NA,NA,NA,NA,NA,NA,NA,NA,NA,NA,NA,NA,NA,NA,NA,NA,NA,NA,NA,NA,NA,NA,NA,NA,NA,NA,NA,NA,NA,NA,NA,NA,NA,NA,NA,NA,NA,NA,NA,NA,NA,NA,NA,NA
"2016_CT6_R01_EKulichkova_RUS_vs_APetkovic_GER_WS128_clip.0075.png",0.150000000000006,0.00999999999999979,3.61599999999999,NA,NA,NA,NA,NA,NA,NA,NA,NA,NA,NA,NA,NA,NA,NA,NA,NA,NA,NA,NA,NA,NA,NA,NA,NA,NA,NA,NA,NA,NA,NA,NA,NA,NA,NA,NA,NA,NA,NA,NA,NA,NA,NA,NA,NA,NA,NA,NA,NA,NA,NA,NA,NA,NA,NA,NA,NA,NA
"2016_CT6_R01_EKulichkova_RUS_vs_APetkovic_GER_WS128_clip.0076.png",0.150000000000006,0,3.75600000000031,NA,NA,NA,NA,NA,NA,NA,NA,NA,NA,NA,NA,NA,NA,NA,NA,NA,NA,NA,NA,NA,NA,NA,NA,NA,NA,NA,NA,NA,NA,NA,NA,NA,NA,NA,NA,NA,NA,NA,NA,NA,NA,NA,NA,NA,NA,NA,NA,NA,NA,NA,NA,NA,NA,NA,NA,NA,NA
"2016_CT6_R01_EKulichkova_RUS_vs_APetkovic_GER_WS128_clip.0077.png",0.140000000000015,0.02,3.89300000000003,NA,NA,NA,NA,NA,NA,NA,NA,NA,NA,NA,NA,NA,NA,NA,NA,NA,NA,NA,NA,NA,NA,NA,NA,NA,NA,NA,NA,NA,NA,NA,NA,NA,NA,NA,NA,NA,NA,NA,NA,NA,NA,NA,NA,NA,NA,NA,NA,NA,NA,NA,NA,NA,NA,NA,NA,NA,NA
"2016_CT6_R01_EKulichkova_RUS_vs_APetkovic_GER_WS128_clip.0078.png",0.139999999999986,0.02,3.42199999999957,NA,NA,NA,NA,NA,NA,NA,NA,NA,NA,NA,NA,NA,NA,NA,NA,NA,NA,NA,NA,NA,NA,NA,NA,NA,NA,NA,NA,NA,NA,NA,NA,NA,NA,NA,NA,NA,NA,NA,NA,NA,NA,NA,NA,NA,NA,NA,NA,NA,NA,NA,NA,NA,NA,NA,NA,NA,NA
"2016_CT6_R01_EKulichkova_RUS_vs_APetkovic_GER_WS128_clip.0079.png",0.20999999999998,0,5.16700000000037,97,316,106,106,80.258469633159,422.91556524463,160.11653036684,408.83443475537,-1,-1,-1,-1,-1,-1,68.440700635205,428.85908848047,96.331944340197,426.51426427271,145.80319697096,415.217993319,175.08991675441,406.19422278864,222.79798176333,406.78804461728,-1,-1,-1,-1,-1,-1,-1,-1,-1,-1,-1,-1,-1,-1,-1,-1,-1,-1,-1,-1,-1,-1,-1,-1,-1,-1,-1,-1,-1.3931777930573,-8.8344580755718,-12.189594416264,0.52316,"M","60%"
"2016_CT6_R01_EKulichkova_RUS_vs_APetkovic_GER_WS128_clip.0080.png",0.149999999999977,0,5.30199999999968,489,72,44,44,502.78303674751,82.14038934948,516.6056396929,83.438378492002,504.01519358998,92.432718313593,506.37324367999,79.7242475475,511.10301357584,113.50361302583,498.91571074947,81.559351732123,504.05862469328,82.478054002613,512.87316754447,83.741534639085,518.72485924241,84.073145637565,-1,-1,-1,-1,496.46016168127,77.677380118489,499.12676682166,74.908361214985,503.68202045555,76.358795218033,510.72235601222,76.670853739923,517.32272533844,76.698099425307,523.87035501875,81.436190093566,503.88509621411,95.71993704637,509.16512891425,97.015217653339,502.15116318053,94.347736640012,512.58200707439,95.980569724523,-1,-1,505.95395412103,104.67616682388,-1,-1,-6.6885786916186,34.725386637268,3.7157636618838,0.54362,"F","90%"
"2016_CT6_R01_EKulichkova_RUS_vs_APetkovic_GER_WS128_clip.0081.png",0.150000000000006,0.0100000000000002,5.26200000000063,434,77,41,41,446.55627777778,84.324166666667,462.58727777778,86.415166666667,449.38038265644,95.421692721748,451.17125466078,83.048766379848,-1,-1,442.95148090278,84.618213541667,449.18091840278,85.685494791667,459.04782465278,86.208244791667,465.56041840278,87.057713541667,-1,-1,-1,-1,438.98925251251,78.876423958038,441.96357997287,78.31595226937,446.94870103295,79.248230090035,455.96658084964,79.704891416191,464.62495540665,78.002262551648,472.70051516126,80.247537251603,449.8984267474,98.925235832001,454.94718920315,99.063690180058,448.35320740014,98.268737392356,457.94273046206,98.238610667188,-1,-1,454.22592005223,108.06035620295,-1,-1,-3.3414566023016,29.432904377154,0.30171523575025,0.50149,"F","70%"
"2016_CT6_R01_EKulichkova_RUS_vs_APetkovic_GER_WS128_clip.0082.png",0.140000000000015,0.0100000000000002,5.44300000000021,427,75,41,41,438.91721875,84.32975,454.565125,85.390625,442.8411296247,91.746039902423,444.54091196094,81.977197473447,-1,-1,435.46108691406,84.586680664062,441.81804882813,85.017661132812,451.14214550781,85.15855859375,457.51568359375,85.345040527344,-1,-1,-1,-1,432.97616052714,79.733712325248,436.85800864075,78.76345644483,442.0001424143,79.617387266544,448.70875022749,79.206992761884,456.17433736572,79.83956775061,461.55802519334,81.72838877538,441.74160511181,96.1109961928,446.89585782141,96.191789096096,440.47324016117,94.802234769612,449.48914275762,95.201334989854,-1,-1,-1,-1,-1,-1,-0.034452582514979,19.283838671501,3.2372600133548,0.54133,"M","60%"
"2016_CT6_R01_EKulichkova_RUS_vs_APetkovic_GER_WS128_clip.0083.png",0.139999999999986,0.02,3.6880000000001,NA,NA,NA,NA,NA,NA,NA,NA,NA,NA,NA,NA,NA,NA,NA,NA,NA,NA,NA,NA,NA,NA,NA,NA,NA,NA,NA,NA,NA,NA,NA,NA,NA,NA,NA,NA,NA,NA,NA,NA,NA,NA,NA,NA,NA,NA,NA,NA,NA,NA,NA,NA,NA,NA,NA,NA,NA,NA
"2016_CT6_R01_EKulichkova_RUS_vs_APetkovic_GER_WS128_clip.0084.png",0.149999999999977,0.00999999999999979,3.65099999999984,NA,NA,NA,NA,NA,NA,NA,NA,NA,NA,NA,NA,NA,NA,NA,NA,NA,NA,NA,NA,NA,NA,NA,NA,NA,NA,NA,NA,NA,NA,NA,NA,NA,NA,NA,NA,NA,NA,NA,NA,NA,NA,NA,NA,NA,NA,NA,NA,NA,NA,NA,NA,NA,NA,NA,NA,NA,NA
"2016_CT6_R01_EKulichkova_RUS_vs_APetkovic_GER_WS128_clip.0085.png",0.139999999999986,0.0200000000000005,3.9340000000002,NA,NA,NA,NA,NA,NA,NA,NA,NA,NA,NA,NA,NA,NA,NA,NA,NA,NA,NA,NA,NA,NA,NA,NA,NA,NA,NA,NA,NA,NA,NA,NA,NA,NA,NA,NA,NA,NA,NA,NA,NA,NA,NA,NA,NA,NA,NA,NA,NA,NA,NA,NA,NA,NA,NA,NA,NA,NA
"2016_CT6_R01_EKulichkova_RUS_vs_APetkovic_GER_WS128_clip.0086.png",0.139999999999986,0.00999999999999979,3.80599999999959,NA,NA,NA,NA,NA,NA,NA,NA,NA,NA,NA,NA,NA,NA,NA,NA,NA,NA,NA,NA,NA,NA,NA,NA,NA,NA,NA,NA,NA,NA,NA,NA,NA,NA,NA,NA,NA,NA,NA,NA,NA,NA,NA,NA,NA,NA,NA,NA,NA,NA,NA,NA,NA,NA,NA,NA,NA,NA
"2016_CT6_R01_EKulichkova_RUS_vs_APetkovic_GER_WS128_clip.0087.png",0.140000000000015,0.02,3.90300000000025,NA,NA,NA,NA,NA,NA,NA,NA,NA,NA,NA,NA,NA,NA,NA,NA,NA,NA,NA,NA,NA,NA,NA,NA,NA,NA,NA,NA,NA,NA,NA,NA,NA,NA,NA,NA,NA,NA,NA,NA,NA,NA,NA,NA,NA,NA,NA,NA,NA,NA,NA,NA,NA,NA,NA,NA,NA,NA
"2016_CT6_R01_EKulichkova_RUS_vs_APetkovic_GER_WS128_clip.0088.png",0.139999999999986,0.00999999999999979,5.06999999999971,472,55,61,61,490.47466666667,71.444444444444,524.69566666667,67.814944444444,-1,-1,-1,-1,-1,-1,482.87540104167,71.168991319444,496.29969010417,70.285921006944,516.25383854167,69.791725694444,530.09940885417,67.782538194444,-1,-1,-1,-1,-1,-1,-1,-1,-1,-1,-1,-1,-1,-1,-1,-1,-1,-1,-1,-1,-1,-1,-1,-1,-1,-1,-1,-1,-1,-1,-11.265527656932,-77.461620904591,-14.348166185002,0.62834,"F","60%"
"2016_CT6_R01_EKulichkova_RUS_vs_APetkovic_GER_WS128_clip.0089.png",0.159999999999997,0,3.9989999999998,NA,NA,NA,NA,NA,NA,NA,NA,NA,NA,NA,NA,NA,NA,NA,NA,NA,NA,NA,NA,NA,NA,NA,NA,NA,NA,NA,NA,NA,NA,NA,NA,NA,NA,NA,NA,NA,NA,NA,NA,NA,NA,NA,NA,NA,NA,NA,NA,NA,NA,NA,NA,NA,NA,NA,NA,NA,NA
"2016_CT6_R01_EKulichkova_RUS_vs_APetkovic_GER_WS128_clip.0090.png",0.159999999999997,0,3.92900000000009,NA,NA,NA,NA,NA,NA,NA,NA,NA,NA,NA,NA,NA,NA,NA,NA,NA,NA,NA,NA,NA,NA,NA,NA,NA,NA,NA,NA,NA,NA,NA,NA,NA,NA,NA,NA,NA,NA,NA,NA,NA,NA,NA,NA,NA,NA,NA,NA,NA,NA,NA,NA,NA,NA,NA,NA,NA,NA
"2016_CT6_R01_EKulichkova_RUS_vs_APetkovic_GER_WS128_clip.0091.png",0.139999999999986,0.00999999999999979,3.85300000000007,NA,NA,NA,NA,NA,NA,NA,NA,NA,NA,NA,NA,NA,NA,NA,NA,NA,NA,NA,NA,NA,NA,NA,NA,NA,NA,NA,NA,NA,NA,NA,NA,NA,NA,NA,NA,NA,NA,NA,NA,NA,NA,NA,NA,NA,NA,NA,NA,NA,NA,NA,NA,NA,NA,NA,NA,NA,NA
"2016_CT6_R01_EKulichkova_RUS_vs_APetkovic_GER_WS128_clip.0092.png",0.150000000000006,0.0100000000000002,4.89600000000064,371,89,100,100,404.75,126.5,438.08333333333,126.08333333333,425.30002555354,144.29663403435,423.67208333183,124.75104198862,419.78058011319,180.90916411335,397.98567708333,127.10546875,412.04817708333,126.9296875,430.79817708333,126.6953125,444.86067708333,126.51953125,-1,-1,375.38189296356,129.89342035849,394.12852523374,119.03644918937,402.7087077586,114.44613122095,414.15783901372,115.21842733055,433.2046979899,115.23679767051,441.3161701158,113.38032641465,447.40268729289,117.02157125453,417.80737717959,148.85692933218,428.68271868866,148.55670262618,413.36717256416,145.71441756186,432.42904287563,146.27655497727,406.2197849021,162.78135559512,419.82897312374,162.94983928808,427.4267008448,162.19591351842,-3.7112978745329,-14.511457665283,1.6982871986812,0.54575,"M","60%"
"2016_CT6_R01_EKulichkova_RUS_vs_APetkovic_GER_WS128_clip.0093.png",0.210000000000008,0,3.90300000000025,NA,NA,NA,NA,NA,NA,NA,NA,NA,NA,NA,NA,NA,NA,NA,NA,NA,NA,NA,NA,NA,NA,NA,NA,NA,NA,NA,NA,NA,NA,NA,NA,NA,NA,NA,NA,NA,NA,NA,NA,NA,NA,NA,NA,NA,NA,NA,NA,NA,NA,NA,NA,NA,NA,NA,NA,NA,NA
"2016_CT6_R01_EKulichkova_RUS_vs_APetkovic_GER_WS128_clip.0094.png",0.129999999999995,0.0300000000000002,3.88000000000011,NA,NA,NA,NA,NA,NA,NA,NA,NA,NA,NA,NA,NA,NA,NA,NA,NA,NA,NA,NA,NA,NA,NA,NA,NA,NA,NA,NA,NA,NA,NA,NA,NA,NA,NA,NA,NA,NA,NA,NA,NA,NA,NA,NA,NA,NA,NA,NA,NA,NA,NA,NA,NA,NA,NA,NA,NA,NA
"2016_CT6_R01_EKulichkova_RUS_vs_APetkovic_GER_WS128_clip.0095.png",0.150000000000006,0,3.6850000000004,NA,NA,NA,NA,NA,NA,NA,NA,NA,NA,NA,NA,NA,NA,NA,NA,NA,NA,NA,NA,NA,NA,NA,NA,NA,NA,NA,NA,NA,NA,NA,NA,NA,NA,NA,NA,NA,NA,NA,NA,NA,NA,NA,NA,NA,NA,NA,NA,NA,NA,NA,NA,NA,NA,NA,NA,NA,NA
"2016_CT6_R01_EKulichkova_RUS_vs_APetkovic_GER_WS128_clip.0096.png",0.149999999999977,0.0200000000000005,3.94700000000012,NA,NA,NA,NA,NA,NA,NA,NA,NA,NA,NA,NA,NA,NA,NA,NA,NA,NA,NA,NA,NA,NA,NA,NA,NA,NA,NA,NA,NA,NA,NA,NA,NA,NA,NA,NA,NA,NA,NA,NA,NA,NA,NA,NA,NA,NA,NA,NA,NA,NA,NA,NA,NA,NA,NA,NA,NA,NA
"2016_CT6_R01_EKulichkova_RUS_vs_APetkovic_GER_WS128_clip.0097.png",0.150000000000006,0.00999999999999979,5.36599999999999,375,36,104,104,410.62058484642,71.582359208623,445.23633695396,75.959824917137,421.35890793277,87.900237946975,426.96972974311,67.994918914336,413.24168797025,110.29533256979,405.75274470629,70.966778093364,418.66525384493,73.149198860736,437.52734537704,76.08399654676,452.80853272748,76.917395540874,-1,-1,-1,-1,399.20194112852,63.150023300499,408.85101348321,56.479867851133,420.11131416827,59.990320014013,437.1042065406,61.935674659176,450.44825431069,61.797282219121,461.50367230624,71.948381580313,416.40886500409,92.331631308768,427.9201791918,93.649452197427,412.88552715317,89.151568586439,433.65277087908,92.084354679711,410.06536212268,94.38213326939,-1,-1,428.93711889055,99.31929050993,3.5501206028691,13.798333930066,12.031351104512,0.55599,"M","90%"
"2016_CT6_R01_EKulichkova_RUS_vs_APetkovic_GER_WS128_clip.0098.png",0.150000000000006,0,3.8149999999996,NA,NA,NA,NA,NA,NA,NA,NA,NA,NA,NA,NA,NA,NA,NA,NA,NA,NA,NA,NA,NA,NA,NA,NA,NA,NA,NA,NA,NA,NA,NA,NA,NA,NA,NA,NA,NA,NA,NA,NA,NA,NA,NA,NA,NA,NA,NA,NA,NA,NA,NA,NA,NA,NA,NA,NA,NA,NA
"2016_CT6_R01_EKulichkova_RUS_vs_APetkovic_GER_WS128_clip.0099.png",0.139999999999986,0.00999999999999979,5.4369999999999,412,96,69,69,440.59066666667,109.8405,466.98316666667,112.1865,459.0011732042,129.32574964311,456.65044164904,105.9427496545,441.36803697527,164.70536022326,433.54350260417,109.6297265625,444.56786979167,111.85659375,462.85933854167,111.8199375,473.61794791667,112.3606171875,-1,-1,396.52204921649,123.39231489831,428.46497428125,98.1138439794,438.05147149319,96.137840906504,449.83170512027,98.530194915774,464.9721612566,100.11235375562,474.53886452826,98.61072705837,480.15220527349,100.74575984417,448.80174203481,134.60259340528,459.21822835614,135.5124364668,445.14528861252,131.1236072536,462.63783268621,133.27911217043,433.04767374991,147.72610221051,446.80458864021,148.30012647826,452.06231665157,147.5691070699,-5.0902156074144,-30.787281438376,7.0101140777456,0.58143,"F","90%"
"2016_CT6_R01_EKulichkova_RUS_vs_APetkovic_GER_WS128_clip.0100.png",0.140000000000015,0.00999999999999979,3.88299999999981,NA,NA,NA,NA,NA,NA,NA,NA,NA,NA,NA,NA,NA,NA,NA,NA,NA,NA,NA,NA,NA,NA,NA,NA,NA,NA,NA,NA,NA,NA,NA,NA,NA,NA,NA,NA,NA,NA,NA,NA,NA,NA,NA,NA,NA,NA,NA,NA,NA,NA,NA,NA,NA,NA,NA,NA,NA,NA
"2016_CT6_R01_EKulichkova_RUS_vs_APetkovic_GER_WS128_clip.0101.png",0.149999999999977,0,5.3159999999998,332,87,113,113,374.84583333333,129.84583333333,404.97916666667,131.72916666667,383.90127954541,152.5573428289,386.83584007248,127.97004926119,387.50318746852,187.07069166521,369.16640625,129.96354166667,381.40807291667,130.72864583333,397.8578125,132.22942708333,410.09947916667,132.99453125,438.82842302089,134.48802934776,-1,-1,364.43716587677,120.40663196759,370.24750736442,118.85729596054,378.67243623214,121.27838206093,396.70377868228,122.38259884582,407.67560262749,122.10192256185,419.334919569,126.14994405064,380.76364211058,157.1280829212,390.28288068387,157.23474063899,378.56544706961,154.1357371724,393.7206771123,155.54011294972,378.52648165653,170.32716022258,386.56407652153,171.29566095323,399.34676150499,172.55474504833,-5.5102351409801,18.696415009277,2.8201578431977,0.60143,"F","100%"
"2016_CT6_R01_EKulichkova_RUS_vs_APetkovic_GER_WS128_clip.0102.png",0.150000000000006,0.00999999999999979,5.47900000000027,334,154,113,113,377.05460018579,196.4618482717,403.87359805287,193.6835699549,400.08987299779,214.59992820971,392.06202058159,192.71218136463,-1,-1,370.39326131772,197.57546469257,382.58903032495,196.73560417194,397.67471662518,195.17282261875,407.22597278626,193.3362851653,-1,-1,-1,-1,362.57932523743,192.20697667982,371.71890295242,189.29209351093,383.63179652711,187.74822285526,400.2247554347,185.59783158486,407.93818239899,185.03080379107,410.93205120951,188.10365824373,394.68480858752,219.62646838613,402.28795907639,218.20851962263,390.41455832257,216.71902864659,404.0844320742,215.38006552497,-1,-1,-1,-1,-1,-1,2.0568475372771,-31.38195715883,-7.2605621975618,0.6152,"F","60%"
"2016_CT6_R01_EKulichkova_RUS_vs_APetkovic_GER_WS128_clip.0103.png",0.150000000000006,0,5.59900000000016,337,72,102,102,369.725,114.925,405,114.925,389.74592992533,133.63984084525,387.70776802201,110.41848856059,388.0866892685,175.62898705762,362.559765625,115.476171875,376.890234375,115.476171875,397.28359375,115.476171875,411.062890625,114.925,425.99951167423,130.84552314514,344.37137636744,133.16390394336,356.48294611558,108.03599289083,367.18969404977,103.34390385089,378.54567023319,104.31335251072,396.69713669554,104.61712252939,408.01198689914,102.75168974135,417.14118390409,106.58892063292,383.59144269967,139.40008089661,394.35576700562,138.67682588369,377.88055382409,136.6474514084,398.86690173432,136.91009544724,374.79125353334,158.24190158802,388.37400889524,156.34356801612,400.86393765781,157.29656628403,1.9914378743281,-4.2224563810087,-0.89412931390862,0.63393,"F","60%"
"2016_CT6_R01_EKulichkova_RUS_vs_APetkovic_GER_WS128_clip.0104.png",0.160000000000025,0,5.31099999999969,337,87,102,102,376.1,127.8,404.15,126.95,393.47347795864,146.51264712537,390.39893558108,126.46461819983,386.75476246431,182.47759669127,371.7703125,129.6859375,381.8375,128.9421875,396.75234375,128.92890625,406.84609375,129.06171875,-1,-1,349.63105649369,137.56665202517,367.67507620867,122.6325438396,374.15856406253,119.55850397438,383.20574467213,119.69505867392,397.59162397333,119.6696366641,404.95874882181,118.62402295888,409.96153686453,120.93852078091,386.64161970903,151.65249239122,395.68880031862,151.78904709076,382.46016992655,149.31307507545,397.69230698174,150.08407183339,379.74796524175,168.30353306497,387.96134784422,168.0543381275,395.35339218645,167.83006268378,-2.4442280685966,-16.255231180191,1.4691921334889,0.6129,"F","70%"
"2016_CT6_R01_EKulichkova_RUS_vs_APetkovic_GER_WS128_clip.0105.png",0.159999999999997,0.00999999999999979,4.70199999999932,NA,NA,NA,NA,NA,NA,NA,NA,NA,NA,NA,NA,NA,NA,NA,NA,NA,NA,NA,NA,NA,NA,NA,NA,NA,NA,NA,NA,NA,NA,NA,NA,NA,NA,NA,NA,NA,NA,NA,NA,NA,NA,NA,NA,NA,NA,NA,NA,NA,NA,NA,NA,NA,NA,NA,NA,NA,NA
"2016_CT6_R01_EKulichkova_RUS_vs_APetkovic_GER_WS128_clip.0106.png",0.150000000000006,0,3.99000000000069,NA,NA,NA,NA,NA,NA,NA,NA,NA,NA,NA,NA,NA,NA,NA,NA,NA,NA,NA,NA,NA,NA,NA,NA,NA,NA,NA,NA,NA,NA,NA,NA,NA,NA,NA,NA,NA,NA,NA,NA,NA,NA,NA,NA,NA,NA,NA,NA,NA,NA,NA,NA,NA,NA,NA,NA,NA,NA
"2016_CT6_R01_EKulichkova_RUS_vs_APetkovic_GER_WS128_clip.0107.png",0.150000000000006,0.00999999999999979,4.00600000000031,NA,NA,NA,NA,NA,NA,NA,NA,NA,NA,NA,NA,NA,NA,NA,NA,NA,NA,NA,NA,NA,NA,NA,NA,NA,NA,NA,NA,NA,NA,NA,NA,NA,NA,NA,NA,NA,NA,NA,NA,NA,NA,NA,NA,NA,NA,NA,NA,NA,NA,NA,NA,NA,NA,NA,NA,NA,NA
"2016_CT6_R01_EKulichkova_RUS_vs_APetkovic_GER_WS128_clip.0108.png",0.159999999999997,0,3.92200000000048,NA,NA,NA,NA,NA,NA,NA,NA,NA,NA,NA,NA,NA,NA,NA,NA,NA,NA,NA,NA,NA,NA,NA,NA,NA,NA,NA,NA,NA,NA,NA,NA,NA,NA,NA,NA,NA,NA,NA,NA,NA,NA,NA,NA,NA,NA,NA,NA,NA,NA,NA,NA,NA,NA,NA,NA,NA,NA
"2016_CT6_R01_EKulichkova_RUS_vs_APetkovic_GER_WS128_clip.0109.png",0.150000000000006,0,3.80699999999979,NA,NA,NA,NA,NA,NA,NA,NA,NA,NA,NA,NA,NA,NA,NA,NA,NA,NA,NA,NA,NA,NA,NA,NA,NA,NA,NA,NA,NA,NA,NA,NA,NA,NA,NA,NA,NA,NA,NA,NA,NA,NA,NA,NA,NA,NA,NA,NA,NA,NA,NA,NA,NA,NA,NA,NA,NA,NA
